~Version ---------------------------------------------------
VERS     .                                                                         2.0 : CWLS log ASCII Standard -VERSION 2.0
WRAP     .                                                                          NO : One Line per depth step
PROD     .                                                                Schlumberger : LAS Producer
PROG     .                                                      DLIS to ASCII 15C0-309 : LAS Program name and version
CREA     . 2008/02/21 06:26                          :LAS Creation date {YYYY/MM/DD hh : mm}
DLIS_CREA.     2008-Feb-20	21:27			       :DLIS Creation date and time {YYYY-MMM-DD hh : mm}
SOURCE   .                                           MAIN_AIT_TLD_MCFL_CNL_046PUP.DLIS : DLIS File Name
FILE-ID  .                                                     AIT_TLD_MCFL_CNL_046PUP : File Identification Number
~Well ------------------------------------------------------
STRT.F     10520.0 : START DEPTH
STOP.F      2062.0 : STOP DEPTH
STEP.F        -0.5 : STEP
NULL.      -999.25 : NULL VALUE
COMP.              : COMPANY
WELL.       Bakken : WELL
FLD .              : FIELD
LOC .              : LOCATION
CNTY.              : COUNTY
STAT.    N. DAKOTA : STATE
CTRY.              : COUNTRY
API .              : API NUMBER
UWI .              : UNIQUE WELL ID
DATE.  20-Feb-2008 : LOG DATE {DD-MMM-YYYY}
SRVC. Schlumberger : SERVICE COMPANY
LATI.DEG         0 : LATITUDE
LONG.DEG         0 : LONGITUDE
GDAT.              : GeoDetic Datum
SECT.              : Section
RANG.              : Range
TOWN.              : Township
~Curve Information -----------------------------------------
DEPT   .F     : DEPTH (BOREHOLE) {F10.1}
BS     .IN    : Bit Size {F13.4}
CHI1   .      : HNGS Detector 1 Chi Squared {F13.4}
CHI2   .      : HNGS Detector 2 Chi Squared {F13.4}
GCF1   .      : HNGS Detector 1 Gain Correction Factor {F13.4}
GCF2   .      : HNGS Detector 2 Gain Correction Factor {F13.4}
GR_EDTC.GAPI  : Gamma Ray {F13.4}
HBHK   .CFCF  : HNGS Borehole Potassium Concentration {F13.4}
HCGR   .GAPI  : HNGS Computed Gamma Ray {F13.4}
HFK    .CFCF  : HNGS Formation Potassium Concentration {F13.4}
HSGR   .GAPI  : HNGS Standard Gamma Ray {F13.4}
HTHO   .PPM   : HNGS Formation Thorium Concentration {F13.4}
HTPR   .      : HNGS Thorium/Potassium Ratio {F13.4}
HTUR   .      : HNGS Thorium/Uranium Ratio {F13.4}
HURA   .PPM   : HNGS Formation Uranium Concentration {F13.4}
RDF1   .      : HNGS Detector 1 Resolution Degradation Factor {F13.4}
RDF2   .      : HNGS Detector 2 Resolution Degradation Factor {F13.4}
TENS   .LBF   : Cable Tension {F13.4}
~Params ----------------------------------------------------
RUN .           ONE : RUN NUMBER
PDAT.  GROUND LEVEL : Permanent Datum
EPD .F       2111.0 : Elevation of Permanent Datum above Mean Sea Level
LMF . KELLY BUSHING : Logging Measured From (Name of Logging Elevation Reference)
APD .F         18.0 : Elevation of Depth Reference (LMF) above Permanent Datum
~Other -----------------------------------------------------
~ASCII -----------------------------------------------------
# ...
 2640.50000    8.75000    0.90050    0.87810    0.97260    0.98090   88.15550   -0.00640   65.04020    0.01860   78.60000    9.94450    5.34450    5.71220    1.74090    0.00000    1.23020 1923.00000
 2640.00000    8.75000    0.90050    0.87810    0.97260    0.98090   78.52670   -0.00640   67.33010    0.01890   80.51750   10.49880    5.55100    6.09330    1.72300    0.00000    1.23020 1917.00000
 2639.50000    8.75000    0.92740    1.05620    0.97260    0.98090   83.11120   -0.00640   71.56520    0.01970   83.61430   11.41280    5.80210    7.00100    1.63020    0.00000    1.23020 1915.00000
 2639.00000    8.75000    0.91710    0.94140    0.97260    0.98090   80.49150   -0.00640   74.45160    0.02020   86.64490   12.03650    5.96330    7.15720    1.68170    0.00000    1.23020 1919.00000
 2638.50000    8.75000    0.91710    0.94140    0.97260    0.98090   89.06950   -0.00640   74.25410    0.01980   86.06790   12.16910    6.13070    7.31990    1.66250    0.00000    1.23020 1917.00000
 2638.00000    8.75000    0.90670    0.94870    0.97260    0.98090   73.30250   -0.00640   71.96570    0.01870   82.97410   12.11820    6.48580    7.05490    1.71770    0.00000    1.23020 1923.00000
 2637.50000    8.75000    0.90480    0.94870    0.97260    0.98090   70.82480   -0.00640   66.87260    0.01770   78.86000   11.08630    6.27780    6.26940    1.76830    0.00000    1.23020 1915.00000
 2637.00000    8.75000    0.90480    0.94920    0.97260    0.98090   72.78960   -0.00640   64.32170    0.01730   77.61010   10.48920    6.06890    5.59990    1.87310    0.00000    1.23020 1909.00000
 2636.50000    8.75000    0.90360    0.93180    0.97260    0.98090   85.24750   -0.00640   65.80720    0.01800   78.26930   10.56980    5.88570    6.28170    1.68260    0.00000    1.23020 1922.00000
 2636.00000    8.75000    0.90360    0.93180    0.97260    0.98090   90.17330   -0.00640   66.84000    0.01930   81.08110   10.09070    5.21690    5.35230    1.88530    0.00000    1.23020 1930.00000
 2635.50000    8.75000    0.93370    0.88320    0.97260    0.98090   84.44080   -0.00640   65.67810    0.02020   81.33720    9.23620    4.58010    4.53220    2.03790    0.00000    1.23020 1926.00000
 2635.00000    8.75000    0.91210    0.88100    0.97260    0.98090   77.92600   -0.00640   65.38770    0.02080   81.64630    8.78200    4.22570    3.98890    2.20160    0.00000    1.23020 1919.00000
 2634.50000    8.75000    0.91210    0.88100    0.97260    0.98090   72.13480   -0.00640   64.47250    0.02030   78.48030    8.74250    4.29630    4.59340    1.90330    0.00000    1.23020 1916.00000
 2634.00000    8.75000    0.86100    0.91060    0.97260    0.98090   73.93780   -0.00640   62.46570    0.01960   76.53440    8.55550    4.37170    4.69120    1.82370    0.00000    1.23020 1911.00000
 2633.50000    8.75000    0.91180    0.88390    0.97260    0.98090   70.77760   -0.00640   61.67700    0.01920   74.63850    8.52830    4.44520    5.47560    1.55750    0.00000    1.23020 1919.00000
 2633.00000    8.75000    0.91180    0.88390    0.97260    0.98090   78.70510   -0.00640   64.39510    0.01990   76.98300    8.98700    4.51850    6.51690    1.37900    0.00000    1.23020 1921.00000
 2632.50000    8.75000    0.93800    0.95930    0.97260    0.98090   82.53690   -0.00640   65.01440    0.02050   79.70560    8.84320    4.31920    5.91800    1.49430    0.00000    1.23020 1921.00000
 2632.00000    8.75000    0.92840    0.95930    0.97260    0.98090   94.21110   -0.00640   68.45830    0.02140   83.12770    9.41430    4.40260    6.20750    1.51660    0.00000    1.23020 1923.00000
 2631.50000    8.75000    0.92840    0.93170    0.97260    0.98090   97.69090   -0.00640   69.10450    0.02140   83.11860    9.60470    4.48560    6.51490    1.47430    0.00000    1.23020 1917.00000
 2631.00000    8.75000    0.87740    0.91900    0.97260    0.98090   98.24470   -0.00640   66.89820    0.02020   82.34650    9.62270    4.76980    5.68510    1.69260    0.00000    1.23020 1919.00000
 2630.50000    8.75000    0.87740    0.91900    0.97260    0.98090   98.71250   -0.00640   67.52170    0.01950   82.14660   10.20270    5.22540    6.53560    1.56110    0.00000    1.23020 1928.00000
 2630.00000    8.75000    0.90700    0.87020    0.97260    0.98090  100.47210   -0.00640   69.91220    0.01990   82.52910   10.74540    5.39800    8.49680    1.26460    0.00000    1.23020 1921.00000
 2629.50000    8.75000    0.93370    0.92710    0.97260    0.98090   98.89550   -0.00640   68.36990    0.01900   82.80450   10.79430    5.68770    7.25960    1.48690    0.00000    1.23020 1922.00000
 2629.00000    8.75000    0.93370    0.92710    0.97260    0.98090  101.11100   -0.00640   62.50280    0.01730   79.46000    9.88250    5.70420    5.19300    1.90310    0.00000    1.23020 1915.00000
 2628.50000    8.75000    0.92250    0.90440    0.97260    0.98090   94.56180   -0.00640   57.57620    0.01630   74.58110    8.89760    5.45500    4.54180    1.95900    0.00000    1.23020 1902.00000
 2628.00000    8.75000    0.91050    0.90440    0.97260    0.98090   81.92890   -0.00640   56.38320    0.01570   71.76600    8.89020    5.67320    4.81700    1.84560    0.00000    1.23020 1916.00000
 2627.50000    8.75000    0.91050    0.88440    0.97260    0.98090   78.59070   -0.00640   58.77780    0.01600   73.54280    9.44510    5.89100    5.10270    1.85100    0.00000    1.23020 1927.00000
 2627.00000    8.75000    0.89050    0.90060    0.97260    0.98090   86.44980   -0.00640   64.17120    0.01720   77.81980   10.51730    6.13140    6.28290    1.67400    0.00000    1.23020 1935.00000
 2626.50000    8.75000    0.89050    0.90060    0.97260    0.98090   97.88380   -0.00640   69.49500    0.01780   79.47890   11.81840    6.62310    9.87100    1.19730    0.00000    1.23020 1922.00000
 2626.00000    8.75000    0.87590    0.87650    0.97260    0.98090  103.12320   -0.00640   74.76600    0.01850   80.91080   13.12530    7.09600   18.79500    0.69830    0.00000    1.23020 1921.00000
 2625.50000    8.75000    0.93940    0.92920    0.97260    0.98090   90.67970   -0.00640   79.05030    0.01970   82.39910   13.79700    7.00560   27.59390    0.31570    0.00000    1.23020 1913.00000
 2625.00000    8.75000    0.93940    0.92920    0.97260    0.98090   85.79490   -0.00640   79.54330    0.02070   84.88990   13.35580    6.44670   26.71170    0.45640    0.00000    1.23020 1905.00000
 2624.50000    8.75000    0.91650    0.92510    0.97260    0.98090   86.61230   -0.00640   76.14100    0.01940   84.17420   13.00970    6.69000   17.37840    0.74860    0.00000    1.23020 1911.00000
 2624.00000    8.75000    0.89480    0.95820    0.97260    0.98090   89.88690   -0.00640   74.42840    0.01970   83.40210   12.30390    6.24080   14.74010    0.83470    0.00000    1.23020 1901.00000
 2623.50000    8.75000    0.89480    0.95820    0.97260    0.98090   91.85170   -0.00640   72.52310    0.01990   82.40780   11.56660    5.80300   12.60500    0.91760    0.00000    1.23020 1903.00000
 2623.00000    8.75000    0.97650    0.86600    0.97260    0.98090   89.38460   -0.00640   72.27580    0.01900   80.62760   12.06170    6.36460   14.20830    0.84890    0.00000    1.23020 1910.00000
 2622.50000    8.75000    0.90670    0.86600    0.97260    0.98090   82.18050   -0.00640   70.61160    0.01960   80.42300   11.16460    5.70410   10.64790    1.04850    0.00000    1.23020 1923.00000
 2622.00000    8.75000    0.90670    0.90430    0.97260    0.98090   76.94110   -0.00640   65.43860    0.01920   76.11120    9.75450    5.09370    8.25860    1.18110    0.00000    1.23020 1920.00000
 2621.50000    8.75000    0.92360    0.89850    0.97260    0.98090   68.11200   -0.00640   59.92160    0.01850   73.65610    8.38180    4.53670    4.85200    1.72750    0.00000    1.23020 1917.00000
 2621.00000    8.75000    0.92360    0.89850    0.97260    0.98090   68.53550   -0.00640   57.15340    0.01840   73.83620    7.52620    4.08540    3.58910    2.09700    0.00000    1.23020 1922.00000
 2620.50000    8.75000    0.94740    0.89730    0.97260    0.98090   74.42980   -0.00640   59.66510    0.01920   80.44890    7.87140    4.09830    3.01870    2.60750    0.00000    1.23020 1909.00000
