~Version ---------------------------------------------------
VERS     .                                                                         2.0 : CWLS log ASCII Standard -VERSION 2.0
WRAP     .                                                                          NO : One Line per depth step
PROD     .                                                                Schlumberger : LAS Producer
PROG     .                                                      DLIS to ASCII 15C0-309 : LAS Program name and version
CREA     . 2008/02/21 06:26                          :LAS Creation date {YYYY/MM/DD hh : mm}
DLIS_CREA.     2008-Feb-20	21:27			       :DLIS Creation date and time {YYYY-MMM-DD hh : mm}
SOURCE   .                                           MAIN_AIT_TLD_MCFL_CNL_046PUP.DLIS : DLIS File Name
FILE-ID  .                                                     AIT_TLD_MCFL_CNL_046PUP : File Identification Number
~Well ------------------------------------------------------
STRT.F     10520.0 : START DEPTH
STOP.F      2062.0 : STOP DEPTH
STEP.F        -0.5 : STEP
NULL.      -999.25 : NULL VALUE
COMP.              : COMPANY
WELL.       Bakken : WELL
FLD .              : FIELD
LOC .              : LOCATION
CNTY.              : COUNTY
STAT.    N. DAKOTA : STATE
CTRY.              : COUNTRY
API .              : API NUMBER
UWI .              : UNIQUE WELL ID
DATE.  20-Feb-2008 : LOG DATE {DD-MMM-YYYY}
SRVC. Schlumberger : SERVICE COMPANY
LATI.DEG         0 : LATITUDE
LONG.DEG         0 : LONGITUDE
GDAT.              : GeoDetic Datum
SECT.              : Section
RANG.              : Range
TOWN.              : Township
~Curve Information -----------------------------------------
DEPT   .F     : DEPTH (BOREHOLE) {F10.1}
BS     .IN    : Bit Size {F13.4}
CHI1   .      : HNGS Detector 1 Chi Squared {F13.4}
CHI2   .      : HNGS Detector 2 Chi Squared {F13.4}
GCF1   .      : HNGS Detector 1 Gain Correction Factor {F13.4}
GCF2   .      : HNGS Detector 2 Gain Correction Factor {F13.4}
GR_EDTC.GAPI  : Gamma Ray {F13.4}
HBHK   .CFCF  : HNGS Borehole Potassium Concentration {F13.4}
HCGR   .GAPI  : HNGS Computed Gamma Ray {F13.4}
HFK    .CFCF  : HNGS Formation Potassium Concentration {F13.4}
HSGR   .GAPI  : HNGS Standard Gamma Ray {F13.4}
HTHO   .PPM   : HNGS Formation Thorium Concentration {F13.4}
HTPR   .      : HNGS Thorium/Potassium Ratio {F13.4}
HTUR   .      : HNGS Thorium/Uranium Ratio {F13.4}
HURA   .PPM   : HNGS Formation Uranium Concentration {F13.4}
RDF1   .      : HNGS Detector 1 Resolution Degradation Factor {F13.4}
RDF2   .      : HNGS Detector 2 Resolution Degradation Factor {F13.4}
TENS   .LBF   : Cable Tension {F13.4}
~Params ----------------------------------------------------
RUN .           ONE : RUN NUMBER
PDAT.  GROUND LEVEL : Permanent Datum
EPD .F       2111.0 : Elevation of Permanent Datum above Mean Sea Level
LMF . KELLY BUSHING : Logging Measured From (Name of Logging Elevation Reference)
APD .F         18.0 : Elevation of Depth Reference (LMF) above Permanent Datum
~Other -----------------------------------------------------
~ASCII -----------------------------------------------------
# ...
 3768.00000    8.75000    0.96970    0.92560    0.97390    0.98650  122.80040   -0.00900   72.52550    0.02080  109.26560   11.04820    5.30720    2.11450    5.22490    1.40270    1.05720 2313.00000
 3767.50000    8.75000    0.96970    0.92560    0.97390    0.98650  126.93520   -0.00900   76.77800    0.02100  108.31960   12.30020    5.85570    2.62180    4.69150    1.40270    1.05720 2319.00000
 3767.00000    8.75000    0.93470    0.94540    0.97390    0.98650  128.14390   -0.00900   78.08320    0.02110  107.12200   12.64640    5.98560    2.91380    4.34020    1.40270    1.05720 2314.00000
 3766.50000    8.75000    0.92390    0.94540    0.97390    0.98650  127.18110   -0.00900   76.69440    0.02030  103.78590   12.71310    6.27690    3.20680    3.96440    1.40270    1.05720 2335.00000
 3766.00000    8.75000    0.92390    0.98230    0.97390    0.98650  125.84320   -0.00900   80.41000    0.02070  103.31330   13.64560    6.59390    4.09390    3.33320    1.40270    1.05720 2321.00000
 3765.50000    8.75000    0.96360    0.97390    0.97390    0.98650  132.81850   -0.00900   82.55330    0.02150  103.49300   13.84300    6.42980    4.54020    3.04900    1.40270    1.05720 2325.00000
 3765.00000    8.75000    0.96360    0.97390    0.97390    0.98650  121.33790   -0.00900   81.60900    0.02230  103.14650   13.10890    5.88740    4.24490    3.08820    1.40270    1.05720 2321.00000
 3764.50000    8.75000    0.92420    0.96350    0.97390    0.98650  109.82500   -0.00900   79.22220    0.02110   99.00660   13.02220    6.16940    4.70060    2.77040    1.40270    1.05720 2316.00000
 3764.00000    8.75000    0.92950    0.96350    0.97390    0.98650  106.55040   -0.00900   77.14300    0.02010   94.17270   12.95070    6.44570    5.33770    2.42620    1.40270    1.05720 2310.00000
 3763.50000    8.75000    0.92950    0.95150    0.97390    0.98650  102.52310   -0.00900   82.58990    0.02130   98.23320   14.01360    6.59250    6.30390    2.22300    1.40270    1.05720 2313.00000
 3763.00000    8.75000    0.99900    0.93800    0.97390    0.98650  109.48330   -0.00900   85.62320    0.02190  103.70070   14.58300    6.64540    6.12320    2.38160    1.40270    1.05720 2313.00000
 3762.50000    8.75000    0.99900    0.93800    0.97390    0.98650  107.56260   -0.00900   82.79090    0.02180  105.59860   13.74670    6.29900    4.97580    2.76270    1.40270    1.05720 2305.00000
 3762.00000    8.75000    0.92710    0.94420    0.97390    0.98650  108.31520   -0.00900   77.55360    0.02100  101.93120   12.57650    6.00110    4.62140    2.72130    1.40270    1.05720 2321.00000
 3761.50000    8.75000    0.91000    0.94420    0.97390    0.98650  103.59500   -0.00900   73.45980    0.01950   97.41060   12.12490    6.22150    4.51650    2.68460    1.40270    1.05720 2301.00000
 3761.00000    8.75000    0.91000    0.98100    0.97390    0.98650   95.88530   -0.00900   74.85790    0.02030   99.58440   12.07790    5.93970    4.35050    2.77620    1.40270    1.05720 2308.00000
 3760.50000    8.75000    0.91850    0.93900    0.97390    0.98650  109.00810   -0.00900   73.90770    0.02050  101.29640   11.67420    5.69360    3.67510    3.17660    1.40270    1.05720 2318.00000
 3760.00000    8.75000    0.91850    0.93900    0.97390    0.98650  113.51930   -0.00900   76.64700    0.02100  106.56450   12.27430    5.85100    3.50410    3.50290    1.40270    1.05720 2310.00000
 3759.50000    8.75000    0.95140    1.00230    0.97390    0.98650  119.88500   -0.00900   79.75900    0.02150  110.49510   12.95650    6.02180    3.64370    3.55580    1.40270    1.05720 2312.00000
 3759.00000    8.75000    0.93150    1.00230    0.97390    0.98650  112.00150   -0.00900   78.80500    0.02260  112.43140   12.03600    5.33360    2.95420    4.07420    1.40270    1.05720 2317.00000
 3758.50000    8.75000    0.93150    0.99750    0.97390    0.98650  124.98670   -0.00900   73.84800    0.02200  109.35170   10.80440    4.92060    2.43830    4.43120    1.40270    1.05720 2321.00000
 3758.00000    8.75000    0.97580    0.95690    0.97390    0.98650  120.84070   -0.00900   69.71400    0.02070  105.08040   10.22150    4.94020    2.29450    4.45490    1.40270    1.05720 2332.00000
 3757.50000    8.75000    0.97580    0.95690    0.97390    0.98650  117.56120   -0.00900   69.04120    0.02070  103.33630   10.02080    4.84920    2.26690    4.42050    1.40270    1.05720 2330.00000
 3757.00000    8.75000    0.91850    1.01320    0.97390    0.98650  104.57600   -0.00900   71.49430    0.02180  106.30660   10.12710    4.64010    2.18410    4.63680    1.40270    1.05720 2342.00000
 3756.50000    8.75000    1.01350    1.01320    0.97390    0.98650  115.30080   -0.00900   71.02600    0.02260  107.56280    9.51750    4.20950    1.90890    4.98580    1.40270    1.05720 2322.00000
 3756.00000    8.75000    1.01350    0.97340    0.97390    0.98650  119.23520   -0.00900   70.43390    0.02330  107.27960    8.92900    3.83370    1.77670    5.02570    1.40270    1.05720 2312.00000
 3755.50000    8.75000    0.91590    0.98830    0.97390    0.98650  122.35230   -0.00900   68.46130    0.02270  104.45460    8.65120    3.81360    1.75220    4.93730    1.40270    1.05720 2310.00000
 3755.00000    8.75000    0.91590    0.98830    0.97390    0.98650  109.21440   -0.00900   68.13870    0.02250  103.07060    8.64340    3.83780    1.78190    4.85070    1.40270    1.05720 2312.00000
 3754.50000    8.75000    1.01230    0.99190    0.97390    0.98650  113.99440   -0.00900   67.99600    0.02130  101.70950    9.28560    4.34980    1.95940    4.73910    1.40270    1.05720 2301.00000
 3754.00000    8.75000    0.93090    0.99190    0.97390    0.98650  125.94050   -0.00900   64.27480    0.01950   98.47140    9.16270    4.69380    1.88010    4.87340    1.40270    1.05720 2314.00000
 3753.50000    8.75000    0.93090    0.94610    0.97390    0.98650  123.45380   -0.00900   64.27280    0.01910   98.23280    9.43410    4.95060    1.98990    4.74110    1.40270    1.05720 2304.00000
 3753.00000    8.75000    0.95120    0.95520    0.97390    0.98650  115.39920   -0.00900   64.17790    0.01850   98.94360    9.74460    5.27470    1.97200    4.94150    1.40270    1.05720 2304.00000
 3752.50000    8.75000    0.95120    0.95520    0.97390    0.98650  106.43560   -0.00900   65.74780    0.01900  104.48080    9.96140    5.25300    1.78680    5.57510    1.40270    1.05720 2300.00000
 3752.00000    8.75000    0.97920    0.98040    0.97390    0.98650  115.47160   -0.00900   69.49640    0.01970  108.03880   10.73020    5.44640    1.94160    5.52640    1.40270    1.05720 2289.00000
 3751.50000    8.75000    0.97570    0.98040    0.97390    0.98650  118.92340   -0.00900   73.29030    0.01990  110.63620   11.84070    5.95570    2.22330    5.32580    1.40270    1.05720 2310.00000
 3751.00000    8.75000    0.97570    0.93630    0.97390    0.98650  118.06320   -0.00900   75.93030    0.01910  111.34770   13.12170    6.85650    2.57500    5.09580    1.40270    1.05720 2313.00000
 3750.50000    8.75000    0.98570    1.00500    0.97390    0.98650  112.31670   -0.00900   75.14500    0.01930  111.40720   12.78430    6.62940    2.50510    5.10330    1.40270    1.05720 2318.00000
 3750.00000    8.75000    0.98570    1.00500    0.97390    0.98650  102.97050   -0.00900   72.31150    0.01870  108.70300   12.22200    6.53790    2.46610    4.95600    1.40270    1.05720 2325.00000
 3749.50000    8.75000    0.94850    0.99690    0.97390    0.98650  100.56590   -0.00900   71.39970    0.01820  107.17660   12.21820    6.71280    2.51110    4.86570    1.40270    1.05720 2336.00000
 3749.00000    8.75000    0.98450    0.99690    0.97390    0.98650  101.27430   -0.00900   70.36420    0.01890  108.35300   11.46350    6.05780    2.23250    5.13480    1.40270    1.05720 2319.00000
 3748.50000    8.75000    0.98450    1.02980    0.97390    0.98650  110.32590   -0.00900   73.79520    0.02090  112.00730   11.41630    5.46720    2.27070    5.02760    1.40270    1.05720 2314.00000
 3748.00000    8.75000    1.02570    0.94340    0.97390    0.98650  106.38250   -0.00900   73.02960    0.02090  113.44910   11.18360    5.36130    2.06840    5.40700    1.40270    1.05720 2314.00000
