~Version ---------------------------------------------------
VERS     .                                                                         2.0 : CWLS log ASCII Standard -VERSION 2.0
WRAP     .                                                                          NO : One Line per depth step
PROD     .                                                                Schlumberger : LAS Producer
PROG     .                                                      DLIS to ASCII 15C0-309 : LAS Program name and version
CREA     . 2008/02/21 06:26                          :LAS Creation date {YYYY/MM/DD hh : mm}
DLIS_CREA.     2008-Feb-20	21:27			       :DLIS Creation date and time {YYYY-MMM-DD hh : mm}
SOURCE   .                                           MAIN_AIT_TLD_MCFL_CNL_046PUP.DLIS : DLIS File Name
FILE-ID  .                                                     AIT_TLD_MCFL_CNL_046PUP : File Identification Number
~Well ------------------------------------------------------
STRT.F     10520.0 : START DEPTH
STOP.F      2062.0 : STOP DEPTH
STEP.F        -0.5 : STEP
NULL.      -999.25 : NULL VALUE
COMP.              : COMPANY
WELL.       Bakken : WELL
FLD .              : FIELD
LOC .              : LOCATION
CNTY.              : COUNTY
STAT.    N. DAKOTA : STATE
CTRY.              : COUNTRY
API .              : API NUMBER
UWI .              : UNIQUE WELL ID
DATE.  20-Feb-2008 : LOG DATE {DD-MMM-YYYY}
SRVC. Schlumberger : SERVICE COMPANY
LATI.DEG         0 : LATITUDE
LONG.DEG         0 : LONGITUDE
GDAT.              : GeoDetic Datum
SECT.              : Section
RANG.              : Range
TOWN.              : Township
~Curve Information -----------------------------------------
DEPT   .F     : DEPTH (BOREHOLE) {F10.1}
BS     .IN    : Bit Size {F13.4}
CHI1   .      : HNGS Detector 1 Chi Squared {F13.4}
CHI2   .      : HNGS Detector 2 Chi Squared {F13.4}
GCF1   .      : HNGS Detector 1 Gain Correction Factor {F13.4}
GCF2   .      : HNGS Detector 2 Gain Correction Factor {F13.4}
GR_EDTC.GAPI  : Gamma Ray {F13.4}
HBHK   .CFCF  : HNGS Borehole Potassium Concentration {F13.4}
HCGR   .GAPI  : HNGS Computed Gamma Ray {F13.4}
HFK    .CFCF  : HNGS Formation Potassium Concentration {F13.4}
HSGR   .GAPI  : HNGS Standard Gamma Ray {F13.4}
HTHO   .PPM   : HNGS Formation Thorium Concentration {F13.4}
HTPR   .      : HNGS Thorium/Potassium Ratio {F13.4}
HTUR   .      : HNGS Thorium/Uranium Ratio {F13.4}
HURA   .PPM   : HNGS Formation Uranium Concentration {F13.4}
RDF1   .      : HNGS Detector 1 Resolution Degradation Factor {F13.4}
RDF2   .      : HNGS Detector 2 Resolution Degradation Factor {F13.4}
TENS   .LBF   : Cable Tension {F13.4}
~Params ----------------------------------------------------
RUN .           ONE : RUN NUMBER
PDAT.  GROUND LEVEL : Permanent Datum
EPD .F       2111.0 : Elevation of Permanent Datum above Mean Sea Level
LMF . KELLY BUSHING : Logging Measured From (Name of Logging Elevation Reference)
APD .F         18.0 : Elevation of Depth Reference (LMF) above Permanent Datum
~Other -----------------------------------------------------
~ASCII -----------------------------------------------------
# ...
 7724.50000    8.75000    1.10900    1.12350    0.97130    0.98520   27.09090   -0.00510   16.60100    0.00650   22.48100    1.50490    2.31230    2.04360    0.73640    3.44500    0.00000 3501.00000
 7724.00000    8.75000    1.11820    1.11850    0.97130    0.98520   27.99990   -0.00510   18.38490    0.00720   24.29160    1.69530    2.36820    2.21830    0.76420    3.44500    0.00000 3494.00000
 7723.50000    8.75000    1.22760    1.17430    0.97130    0.98520   27.77760   -0.00510   19.26000    0.00740   25.20070    1.81030    2.43280    2.33680    0.77470    3.44500    0.00000 3510.00000
 7723.00000    8.75000    1.18870    1.15970    0.97130    0.98520   28.12090   -0.00510   20.23910    0.00780   25.57200    1.91770    2.46080    2.75530    0.69600    3.44500    0.00000 3502.00000
 7722.50000    8.75000    1.11580    1.07900    0.97130    0.98520   26.00600   -0.00510   18.13540    0.00670   23.02010    1.91160    2.87340    3.07930    0.62080    3.44500    0.00000 3461.00000
 7722.00000    8.75000    1.03610    1.11790    0.97130    0.98520   24.05730   -0.00510   16.36470    0.00590   20.82560    1.78800    3.03290    3.20480    0.55790    3.44500    0.00000 3468.00000
 7721.50000    8.75000    1.04440    1.10790    0.97130    0.98520   24.00730   -0.00510   15.73810    0.00560   19.61810    1.78080    3.19990    3.56160    0.49720    3.44500    0.00000 3445.00000
 7721.00000    8.75000    1.22200    1.15650    0.97130    0.98520   27.26630   -0.00510   18.67660    0.00640   22.78230    2.22190    3.46160    4.08660    0.54370    3.44500    0.00000 3458.00000
 7720.50000    8.75000    1.18720    1.25500    0.97130    0.98520   30.47580   -0.00510   28.97300    0.01000   34.68230    3.44520    3.45870    4.90470    0.70240    3.44500    0.00000 3455.00000
 7720.00000    8.75000    1.38220    1.38320    0.97130    0.98520   30.80890   -0.00510   43.02260    0.01470   50.53150    5.15360    3.49950    5.74690    0.89680    3.44500    0.00000 3441.00000
 7719.50000    8.75000    1.27460    1.31820    0.97130    0.98520   27.24400   -0.00510   50.45230    0.01730   59.62170    6.05100    3.50640    5.50250    1.09970    3.44500    0.00000 3435.00000
 7719.00000    8.75000    1.45780    1.32310    0.97130    0.98520   23.96710   -0.00510   50.47360    0.01720   59.35010    6.11210    3.56090    5.69260    1.07370    3.44500    0.00000 3440.00000
 7718.50000    8.75000    1.46670    1.44520    0.97130    0.98520   21.22270   -0.00510   45.51410    0.01520   52.83910    5.65780    3.71530    6.58340    0.85940    3.44500    0.00000 3449.00000
 7718.00000    8.75000    1.29470    1.66730    0.97130    0.98520   21.25860   -0.00510   38.21570    0.01280   44.79240    4.72840    3.68710    6.38340    0.74070    3.44500    0.00000 3420.00000
 7717.50000    8.75000    1.23170    1.30720    0.97130    0.98520   24.21490   -0.00510   28.95420    0.00970   33.88150    3.58590    3.69290    6.54220    0.54810    3.44500    0.00000 3414.00000
 7717.00000    8.75000    1.12070    1.12900    0.97130    0.98520   33.93760   -0.00510   19.65950    0.00680   23.62140    2.28710    3.34110    4.57430    0.47180    3.44500    0.00000 3455.00000
 7716.50000    8.75000    1.15460    1.12580    0.97130    0.98520   50.32490   -0.00510   15.28820    0.00530   18.53020    1.77520    3.33110    3.55050    0.40660    3.44500    0.00000 3476.00000
 7716.00000    8.75000    1.12720    1.05610    0.97130    0.98520   62.39810   -0.00510   16.06050    0.00570   19.71230    1.79770    3.14660    3.59550    0.44070    3.44500    0.00000 3466.00000
 7715.50000    8.75000    1.18290    1.15620    0.97130    0.98520   66.14400   -0.00510   23.80990    0.00870   29.38940    2.51970    2.89010    3.77420    0.66760    3.44500    0.00000 3495.00000
 7715.00000    8.75000    1.23520    1.13950    0.97130    0.98520   57.90460   -0.00510   41.92350    0.01540   50.50850    4.41070    2.86510    4.24630    1.03870    3.44500    0.00000 3459.00000
 7714.50000    8.75000    1.42870    1.40690    0.97130    0.98520   46.31990   -0.00510   57.37030    0.02110   69.50760    6.00060    2.84030    4.05870    1.47850    3.44500    0.00000 3470.00000
 7714.00000    8.75000    1.43230    1.56090    0.97130    0.98520   33.01280   -0.00510   62.63680    0.02300   75.75190    6.59230    2.86670    4.18320    1.57590    3.44500    0.00000 3467.00000
 7713.50000    8.75000    1.38610    1.53640    0.97130    0.98520   23.81560   -0.00510   59.50180    0.02160   71.13960    6.42400    2.97840    4.53750    1.41570    3.44500    0.00000 3490.00000
 7713.00000    8.75000    1.41950    1.25510    0.97130    0.98520   20.49490   -0.00510   61.02720    0.02220   72.83850    6.53900    2.94460    4.46650    1.46400    3.44500    0.00000 3403.00000
 7712.50000    8.75000    1.55590    1.34890    0.97130    0.98520   22.68510   -0.00510   67.56860    0.02490   80.22130    7.08390    2.85020    4.40610    1.60780    3.44500    0.00000 3453.00000
 7712.00000    8.75000    1.53480    1.38900    0.97130    0.98520   38.54990   -0.00510   68.92550    0.02550   81.96010    7.16350    2.81340    4.20880    1.70200    3.44500    0.00000 3453.00000
 7711.50000    8.75000    1.67350    1.45410    0.97130    0.98520   59.97580   -0.00510   63.68960    0.02350   75.45230    6.64990    2.83260    4.45290    1.49340    3.44500    0.00000 3472.00000
 7711.00000    8.75000    1.30300    1.31190    0.97130    0.98520   77.96100   -0.00510   55.31450    0.02060   65.59570    5.67810    2.76220    4.43850    1.27930    3.44500    0.00000 3495.00000
 7710.50000    8.75000    1.44410    1.38680    0.97130    0.98520   78.63890   -0.00510   50.42300    0.01860   59.88370    5.24200    2.81430    4.26580    1.22880    3.44500    0.00000 3465.00000
 7710.00000    8.75000    1.42450    1.24450    0.97000    0.98400   76.10800   -0.00370   45.80600    0.01690   54.43280    4.76860    2.81990    4.27100    1.11650    2.20790    0.55870 3496.00000
 7709.50000    8.75000    1.23270    1.29590    0.97000    0.98400   76.25170   -0.00370   42.88310    0.01580   51.85400    4.46000    2.81570    3.83880    1.16180    2.20790    0.55870 3442.00000
 7709.00000    8.75000    1.37120    1.31170    0.97000    0.98400   84.22790   -0.00370   40.86040    0.01520   49.20830    4.18900    2.75640    3.80090    1.10210    2.20790    0.55870 3469.00000
 7708.50000    8.75000    1.28700    1.22950    0.97000    0.98400   83.27330   -0.00370   39.99950    0.01490   47.83720    4.06020    2.71630    3.84500    1.05600    2.20790    0.55870 3453.00000
 7708.00000    8.75000    1.29390    1.33320    0.97000    0.98400   78.07360   -0.00370   36.88380    0.01370   43.52270    3.81740    2.79470    4.12450    0.92560    2.20790    0.55870 3430.00000
 7707.50000    8.75000    1.16990    1.08830    0.97000    0.98400   70.08600   -0.00370   33.88340    0.01260   40.06010    3.44860    2.72650    4.10050    0.84100    2.20790    0.55870 3478.00000
 7707.00000    8.75000    1.24740    1.16930    0.97000    0.98400   66.12380   -0.00370   31.72430    0.01170   37.40750    3.34140    2.86800    4.34100    0.76970    2.20790    0.55870 3477.00000
 7706.50000    8.75000    1.19450    1.18870    0.97000    0.98400   61.66740   -0.00370   36.45580    0.01350   42.84570    3.76970    2.79080    4.45530    0.84610    2.20790    0.55870 3482.00000
 7706.00000    8.75000    1.39980    1.57370    0.97000    0.98400   57.74540   -0.00370   46.98810    0.01750   54.17660    4.79520    2.73720    4.71770    1.01640    2.20790    0.55870 3494.00000
 7705.50000    8.75000    1.31510    1.49940    0.97000    0.98400   54.55100   -0.00370   53.86590    0.01990   60.90510    5.62880    2.83460    5.39830    1.04270    2.20790    0.55870 3523.00000
 7705.00000    8.75000    1.20660    1.40630    0.97000    0.98400   54.97000   -0.00370   53.32630    0.01990   58.58670    5.41640    2.71840    7.00250    0.77350    2.20790    0.55870 3472.00000
 7704.50000    8.75000    1.29940    1.12140    0.97000    0.98400   52.69090   -0.00370   43.42640    0.01610   47.22330    4.50500    2.80410    7.90310    0.57000    2.20790    0.55870 3507.00000
