~Version ---------------------------------------------------
VERS     .                                                                         2.0 : CWLS log ASCII Standard -VERSION 2.0
WRAP     .                                                                          NO : One Line per depth step
PROD     .                                                                Schlumberger : LAS Producer
PROG     .                                                      DLIS to ASCII 15C0-309 : LAS Program name and version
CREA     . 2008/02/21 06:26                          :LAS Creation date {YYYY/MM/DD hh : mm}
DLIS_CREA.     2008-Feb-20	21:27			       :DLIS Creation date and time {YYYY-MMM-DD hh : mm}
SOURCE   .                                           MAIN_AIT_TLD_MCFL_CNL_046PUP.DLIS : DLIS File Name
FILE-ID  .                                                     AIT_TLD_MCFL_CNL_046PUP : File Identification Number
~Well ------------------------------------------------------
STRT.F     10520.0 : START DEPTH
STOP.F      2062.0 : STOP DEPTH
STEP.F        -0.5 : STEP
NULL.      -999.25 : NULL VALUE
COMP.              : COMPANY
WELL.       Bakken : WELL
FLD .              : FIELD
LOC .              : LOCATION
CNTY.              : COUNTY
STAT.    N. DAKOTA : STATE
CTRY.              : COUNTRY
API .              : API NUMBER
UWI .              : UNIQUE WELL ID
DATE.  20-Feb-2008 : LOG DATE {DD-MMM-YYYY}
SRVC. Schlumberger : SERVICE COMPANY
LATI.DEG         0 : LATITUDE
LONG.DEG         0 : LONGITUDE
GDAT.              : GeoDetic Datum
SECT.              : Section
RANG.              : Range
TOWN.              : Township
~Curve Information -----------------------------------------
DEPT   .F     : DEPTH (BOREHOLE) {F10.1}
BS     .IN    : Bit Size {F13.4}
CHI1   .      : HNGS Detector 1 Chi Squared {F13.4}
CHI2   .      : HNGS Detector 2 Chi Squared {F13.4}
GCF1   .      : HNGS Detector 1 Gain Correction Factor {F13.4}
GCF2   .      : HNGS Detector 2 Gain Correction Factor {F13.4}
GR_EDTC.GAPI  : Gamma Ray {F13.4}
HBHK   .CFCF  : HNGS Borehole Potassium Concentration {F13.4}
HCGR   .GAPI  : HNGS Computed Gamma Ray {F13.4}
HFK    .CFCF  : HNGS Formation Potassium Concentration {F13.4}
HSGR   .GAPI  : HNGS Standard Gamma Ray {F13.4}
HTHO   .PPM   : HNGS Formation Thorium Concentration {F13.4}
HTPR   .      : HNGS Thorium/Potassium Ratio {F13.4}
HTUR   .      : HNGS Thorium/Uranium Ratio {F13.4}
HURA   .PPM   : HNGS Formation Uranium Concentration {F13.4}
RDF1   .      : HNGS Detector 1 Resolution Degradation Factor {F13.4}
RDF2   .      : HNGS Detector 2 Resolution Degradation Factor {F13.4}
TENS   .LBF   : Cable Tension {F13.4}
~Params ----------------------------------------------------
RUN .           ONE : RUN NUMBER
PDAT.  GROUND LEVEL : Permanent Datum
EPD .F       2111.0 : Elevation of Permanent Datum above Mean Sea Level
LMF . KELLY BUSHING : Logging Measured From (Name of Logging Elevation Reference)
APD .F         18.0 : Elevation of Depth Reference (LMF) above Permanent Datum
~Other -----------------------------------------------------
~ASCII -----------------------------------------------------
# ...
 3214.50000    8.75000    0.92590    0.87820    0.97060    0.98460   93.50010   -0.01260   65.15750    0.02050   81.95710    8.89670    4.34620    6.20500    1.43380    0.86310    0.00000 2130.00000
 3214.00000    8.75000    0.91010    0.90920    0.97060    0.98460   93.27520   -0.01260   64.07050    0.01950   80.79240    9.11010    4.66960    6.37290    1.42950    0.86310    0.00000 2138.00000
 3213.50000    8.75000    0.88870    0.90920    0.97060    0.98460   89.55810   -0.01260   65.94330    0.02000   80.50950    9.42400    4.71250    7.96770    1.18280    0.86310    0.00000 2138.00000
 3213.00000    8.75000    0.88870    0.86770    0.97060    0.98460   92.09470   -0.01260   66.36890    0.02010   79.61200    9.52030    4.74440    8.31260    1.14530    0.86310    0.00000 2149.00000
 3212.50000    8.75000    0.87070    0.88380    0.97060    0.98460   91.75490   -0.01260   66.71550    0.02000   80.49320    9.69750    4.86010    7.77010    1.24800    0.86310    0.00000 2154.00000
 3212.00000    8.75000    0.87070    0.88380    0.97060    0.98460   92.79200   -0.01260   71.09440    0.02060   84.38380   10.71660    5.19990    8.22210    1.30340    0.86310    0.00000 2144.00000
 3211.50000    8.75000    0.93370    0.89380    0.97060    0.98460   99.12680   -0.01260   77.02210    0.02090   87.87630   12.45280    5.96150   11.79460    1.05580    0.86310    0.00000 2139.00000
 3211.00000    8.75000    0.89200    0.89380    0.97060    0.98460   90.90340   -0.01260   79.24070    0.02140   91.70320   12.89110    6.03660   10.35000    1.24550    0.86310    0.00000 2128.00000
 3210.50000    8.75000    0.89200    0.89310    0.97060    0.98460   88.15070   -0.01260   78.59060    0.02100   90.90200   12.89880    6.14630   10.18590    1.26630    0.86310    0.00000 2130.00000
 3210.00000    8.75000    0.91240    0.95430    0.97060    0.98460   90.99470   -0.01260   79.12350    0.02100   90.48790   13.05100    6.20930   10.07580    1.29530    0.86310    0.00000 2130.00000
 3209.50000    8.75000    0.91240    0.95430    0.97060    0.98460   96.75110   -0.01260   76.61520    0.02060   87.50540   12.48790    6.05980    9.37790    1.33160    0.86310    0.00000 2121.00000
 3209.00000    8.75000    0.93290    0.85190    0.97060    0.98460   91.38310   -0.01260   75.85580    0.02010   85.18400   12.52280    6.22000    9.92740    1.26140    0.86310    0.00000 2140.00000
 3208.50000    8.75000    0.94430    0.85190    0.97060    0.98460   82.33730   -0.01260   73.68590    0.02000   83.45670   11.89670    5.94380    8.22790    1.44590    0.86310    0.00000 2134.00000
 3208.00000    8.75000    0.94430    0.86390    0.97060    0.98460   81.21450   -0.01260   73.75190    0.01980   86.27540   12.01810    6.05630    7.00150    1.71650    0.86310    0.00000 2151.00000
 3207.50000    8.75000    0.87700    0.91020    0.97060    0.98460   79.46710   -0.01260   74.13860    0.02040   89.23670   11.83600    5.81140    6.09090    1.94320    0.86310    0.00000 2170.00000
 3207.00000    8.75000    0.87700    0.91020    0.97060    0.98460   74.74970   -0.01260   73.46530    0.02120   89.36220   11.14190    5.25960    5.64120    1.97510    0.86310    0.00000 2174.00000
 3206.50000    8.75000    0.91770    0.91110    0.97060    0.98460   74.82300   -0.01260   72.52760    0.02220   87.01790   10.25720    4.62430    5.66160    1.81170    0.86310    0.00000 2161.00000
 3206.00000    8.75000    0.91770    0.91110    0.97060    0.98460   86.33580   -0.01260   69.87070    0.02340   84.72830    8.71960    3.73390    4.50610    1.93500    0.86310    0.00000 2155.00000
 3205.50000    8.75000    0.88720    0.90740    0.97060    0.98460   85.02600   -0.01260   69.14270    0.02410   84.47940    8.06230    3.34860    4.17280    1.93210    0.86310    0.00000 2136.00000
 3205.00000    8.75000    0.94610    0.90740    0.97060    0.98460   92.37180   -0.01260   67.82960    0.02390   86.36400    7.72940    3.23060    3.39440    2.27710    0.86310    0.00000 2128.00000
 3204.50000    8.75000    0.94610    0.91400    0.97060    0.98460   94.06610   -0.01260   66.96480    0.02300   86.68030    7.98170    3.46710    3.32240    2.40240    0.86310    0.00000 2121.00000
 3204.00000    8.75000    0.96870    0.94550    0.97060    0.98460   94.72100   -0.01260   66.39660    0.02220   87.14030    8.25380    3.71030    3.41550    2.41650    0.86310    0.00000 2117.00000
 3203.50000    8.75000    0.96870    0.94550    0.97060    0.98460   97.16960   -0.01260   61.50330    0.02060   83.40780    7.64110    3.70680    3.15550    2.42150    0.86310    0.00000 2132.00000
 3203.00000    8.75000    0.87360    0.88040    0.97060    0.98460   95.47540   -0.01260   60.67220    0.02030   81.58010    7.54330    3.71110    3.26130    2.31290    0.86310    0.00000 2139.00000
 3202.50000    8.75000    0.88850    0.88040    0.97060    0.98460  100.71480   -0.01260   64.36970    0.02190   81.00420    7.80250    3.56150    4.06460    1.91960    0.86310    0.00000 2147.00000
 3202.00000    8.75000    0.88850    0.93140    0.97060    0.98460   89.50260   -0.01260   66.10760    0.02270   82.00710    7.88000    3.46720    4.26980    1.84550    0.86310    0.00000 2153.00000
 3201.50000    8.75000    0.88870    1.03810    0.97060    0.98460   94.71080   -0.01260   69.10260    0.02340   82.80320    8.46530    3.62270    5.20340    1.62690    0.86310    0.00000 2147.00000
 3201.00000    8.75000    0.88870    1.03810    0.97060    0.98460   95.66610   -0.01260   67.15710    0.02210   79.77520    8.56090    3.86680    5.80570    1.47460    0.86310    0.00000 2155.00000
 3200.50000    8.75000    0.92840    0.94370    0.97060    0.98460   94.84380   -0.01260   64.38510    0.02040   78.16690    8.68040    4.25130    5.06890    1.71250    0.86310    0.00000 2154.00000
 3200.00000    8.75000    0.90390    0.94370    0.97060    0.98460   87.85790   -0.01260   63.23930    0.01980   78.49390    8.70270    4.40580    4.43200    1.96360    0.86310    0.00000 2149.00000
 3199.50000    8.75000    0.90390    0.92630    0.97060    0.98460   88.44710   -0.01260   67.60260    0.02110   80.51490    9.30280    4.40550    5.21010    1.78550    0.86310    0.00000 2144.00000
 3199.00000    8.75000    0.90790    0.87980    0.97060    0.98460   93.23340   -0.01260   68.17950    0.02210   81.58140    8.93160    4.04770    5.10450    1.74980    0.86310    0.00000 2155.00000
 3198.50000    8.75000    0.90790    0.87980    0.97060    0.98460  101.58980   -0.01260   68.33470    0.02280   82.40950    8.52420    3.73110    4.67300    1.82410    0.86310    0.00000 2147.00000
 3198.00000    8.75000    0.92600    0.89240    0.97060    0.98460   98.08060   -0.01260   70.59130    0.02380   82.27220    8.68900    3.65090    5.11450    1.69890    0.86310    0.00000 2145.00000
 3197.50000    8.75000    0.91640    0.89240    0.97060    0.98460   92.26940   -0.01260   72.32800    0.02360   81.85730    9.37570    3.97670    6.80620    1.37750    0.86310    0.00000 2141.00000
 3197.00000    8.75000    0.91640    0.91090    0.97060    0.98460   76.64490   -0.01260   73.37970    0.02260   82.20850   10.28350    4.54990    8.34530    1.23230    0.86310    0.00000 2138.00000
 3196.50000    8.75000    0.87240    0.90890    0.97060    0.98460   81.22930   -0.01260   74.91670    0.02280   84.26560   10.66140    4.67670    8.14860    1.30840    0.86310    0.00000 2148.00000
 3196.00000    8.75000    0.87240    0.90890    0.97060    0.98460   85.54360   -0.01260   72.67420    0.02210   84.84410   10.34100    4.67570    6.14190    1.68370    0.86310    0.00000 2131.00000
 3195.50000    8.75000    0.89440    0.92750    0.97060    0.98460   80.48060   -0.01260   72.53330    0.02160   86.90860   10.59400    4.90300    5.64920    1.87530    0.86310    0.00000 2137.00000
 3195.00000    8.75000    0.95600    0.92750    0.97060    0.98460   76.55110   -0.01260   73.46050    0.02170   87.78420   10.82660    4.98510    6.51630    1.66140    0.86310    0.00000 2139.00000
 3194.50000    8.75000    0.95600    0.90760    0.97060    0.98460   80.88080   -0.01260   75.92050    0.02230   89.10550   11.27950    5.06010    7.67390    1.46980    0.86310    0.00000 2135.00000
