~Version ---------------------------------------------------
VERS     .                                                                         2.0 : CWLS log ASCII Standard -VERSION 2.0
WRAP     .                                                                          NO : One Line per depth step
PROD     .                                                                Schlumberger : LAS Producer
PROG     .                                                      DLIS to ASCII 15C0-309 : LAS Program name and version
CREA     . 2008/02/21 06:26                          :LAS Creation date {YYYY/MM/DD hh : mm}
DLIS_CREA.     2008-Feb-20	21:27			       :DLIS Creation date and time {YYYY-MMM-DD hh : mm}
SOURCE   .                                           MAIN_AIT_TLD_MCFL_CNL_046PUP.DLIS : DLIS File Name
FILE-ID  .                                                     AIT_TLD_MCFL_CNL_046PUP : File Identification Number
~Well ------------------------------------------------------
STRT.F     10520.0 : START DEPTH
STOP.F      2062.0 : STOP DEPTH
STEP.F        -0.5 : STEP
NULL.      -999.25 : NULL VALUE
COMP.              : COMPANY
WELL.       Bakken : WELL
FLD .              : FIELD
LOC .              : LOCATION
CNTY.              : COUNTY
STAT.    N. DAKOTA : STATE
CTRY.              : COUNTRY
API .              : API NUMBER
UWI .              : UNIQUE WELL ID
DATE.  20-Feb-2008 : LOG DATE {DD-MMM-YYYY}
SRVC. Schlumberger : SERVICE COMPANY
LATI.DEG         0 : LATITUDE
LONG.DEG         0 : LONGITUDE
GDAT.              : GeoDetic Datum
SECT.              : Section
RANG.              : Range
TOWN.              : Township
~Curve Information -----------------------------------------
DEPT   .F     : DEPTH (BOREHOLE) {F10.1}
BS     .IN    : Bit Size {F13.4}
CHI1   .      : HNGS Detector 1 Chi Squared {F13.4}
CHI2   .      : HNGS Detector 2 Chi Squared {F13.4}
GCF1   .      : HNGS Detector 1 Gain Correction Factor {F13.4}
GCF2   .      : HNGS Detector 2 Gain Correction Factor {F13.4}
GR_EDTC.GAPI  : Gamma Ray {F13.4}
HBHK   .CFCF  : HNGS Borehole Potassium Concentration {F13.4}
HCGR   .GAPI  : HNGS Computed Gamma Ray {F13.4}
HFK    .CFCF  : HNGS Formation Potassium Concentration {F13.4}
HSGR   .GAPI  : HNGS Standard Gamma Ray {F13.4}
HTHO   .PPM   : HNGS Formation Thorium Concentration {F13.4}
HTPR   .      : HNGS Thorium/Potassium Ratio {F13.4}
HTUR   .      : HNGS Thorium/Uranium Ratio {F13.4}
HURA   .PPM   : HNGS Formation Uranium Concentration {F13.4}
RDF1   .      : HNGS Detector 1 Resolution Degradation Factor {F13.4}
RDF2   .      : HNGS Detector 2 Resolution Degradation Factor {F13.4}
TENS   .LBF   : Cable Tension {F13.4}
~Params ----------------------------------------------------
RUN .           ONE : RUN NUMBER
PDAT.  GROUND LEVEL : Permanent Datum
EPD .F       2111.0 : Elevation of Permanent Datum above Mean Sea Level
LMF . KELLY BUSHING : Logging Measured From (Name of Logging Elevation Reference)
APD .F         18.0 : Elevation of Depth Reference (LMF) above Permanent Datum
~Other -----------------------------------------------------
~ASCII -----------------------------------------------------
# ...
 4342.00000    8.75000    1.05150    1.01540    0.97300    0.98380  134.93830   -0.00800   24.92830    0.00700  156.84730    3.86920    5.50490    0.22940   16.86800    2.16890    1.38880 2506.00000
 4341.50000    8.75000    1.05750    1.01250    0.97300    0.98380  133.62840   -0.00800   28.11060    0.00710  161.07110    4.85480    6.85110    0.28690   16.92400    2.16890    1.38880 2512.00000
 4341.00000    8.75000    1.05140    1.01250    0.97300    0.98380  139.25680   -0.00800   29.69880    0.00730  170.56760    5.24940    7.20980    0.29310   17.90940    2.16890    1.38880 2522.00000
 4340.50000    8.75000    1.05140    1.20260    0.97300    0.98380  141.19710   -0.00800   32.60090    0.00750  185.49950    6.06720    8.12020    0.31260   19.41020    2.16890    1.38880 2516.00000
 4340.00000    8.75000    1.04650    1.10470    0.97300    0.98380  148.79030   -0.00800   36.94130    0.00800  200.35150    7.14690    8.93140    0.34360   20.80060    2.16890    1.38880 2508.00000
 4339.50000    8.75000    1.04650    1.10470    0.97300    0.98380  162.80960   -0.00800   40.37180    0.00800  212.99370    8.21930   10.21430    0.37690   21.80720    2.16890    1.38880 2487.00000
 4339.00000    8.75000    1.06260    1.12090    0.97300    0.98380  183.11210   -0.00800   39.75160    0.00780  214.57410    8.16510   10.46750    0.37280   21.90030    2.16890    1.38880 2490.00000
 4338.50000    8.75000    1.07700    1.12090    0.97300    0.98380  201.20370   -0.00800   42.58900    0.00780  214.20410    9.10290   11.74490    0.42390   21.47550    2.16890    1.38880 2491.00000
 4338.00000    8.75000    1.07700    1.09780    0.97300    0.98380  208.03150   -0.00800   39.20520    0.00650  203.32240    8.76690   13.54400    0.42500   20.62930    2.16890    1.38880 2485.00000
 4337.50000    8.75000    1.08160    1.05560    0.97300    0.98380  225.05950   -0.00800   39.98100    0.00710  193.87250    8.63430   12.12060    0.45210   19.09630    2.16890    1.38880 2493.00000
 4337.00000    8.75000    1.08160    1.05560    0.97300    0.98380  229.50120   -0.00800   42.99370    0.00800  186.69730    9.08290   11.34640    0.51090   17.77940    2.16890    1.38880 2500.00000
 4336.50000    8.75000    1.09580    1.15700    0.97300    0.98380  235.79150   -0.00800   42.27550    0.00760  187.37160    9.08860   11.95470    0.50010   18.17320    2.16890    1.38880 2495.00000
 4336.00000    8.75000    1.09190    1.15700    0.97300    0.98380  222.69310   -0.00800   39.97720    0.00740  184.27430    8.48410   11.49990    0.46580   18.21340    2.16890    1.38880 2511.00000
 4335.50000    8.75000    1.09190    1.12850    0.97300    0.98380  213.66100   -0.00800   34.09030    0.00630  159.79750    7.20310   11.35220    0.45480   15.83620    2.16890    1.38880 2515.00000
 4335.00000    8.75000    1.01090    0.92760    0.97300    0.98380  208.83590   -0.00800   28.60420    0.00560  135.00860    5.86990   10.44270    0.44150   13.29530    2.16890    1.38880 2508.00000
 4334.50000    8.75000    1.01090    0.92760    0.97300    0.98380  213.67940   -0.00800   20.03780    0.00410   99.50610    4.00020    9.68830    0.40460    9.88750    2.16890    1.38880 2521.00000
 4334.00000    8.75000    0.95030    0.91850    0.97300    0.98380  218.12700   -0.00800   17.53240    0.00350   86.42500    3.57110   10.22970    0.40910    8.72870    2.16890    1.38880 2504.00000
 4333.50000    8.75000    0.95670    0.91850    0.97300    0.98380  214.72860   -0.00800   17.45380    0.00360   79.27080    3.49330    9.75550    0.44180    7.90610    2.16890    1.38880 2510.00000
 4333.00000    8.75000    0.95670    0.89700    0.97300    0.98380  207.92040   -0.00800   21.69740    0.00480  101.11980    4.11340    8.49330    0.39900   10.30870    2.16890    1.38880 2499.00000
 4332.50000    8.75000    0.99830    0.99740    0.97300    0.98380  198.19500   -0.00800   26.26990    0.00660  121.55750    4.55930    6.92590    0.36740   12.40960    2.16890    1.38880 2496.00000
 4332.00000    8.75000    0.99830    0.99740    0.97300    0.98380  158.41410   -0.00800   30.27970    0.00770  147.23160    5.19430    6.75250    0.33870   15.33650    2.16890    1.38880 2508.00000
 4331.50000    8.75000    1.10830    1.08790    0.97300    0.98380  112.35290   -0.00800   31.77430    0.00850  164.51000    5.22790    6.18460    0.30190   17.31440    2.16890    1.38880 2505.00000
 4331.00000    8.75000    1.04350    1.18720    0.97300    0.98380   78.85340   -0.00800   37.28870    0.00980  181.83370    6.18150    6.28130    0.33300   18.56050    2.16890    1.38880 2511.00000
 4330.50000    8.75000    1.04350    1.18720    0.97300    0.98380   85.13610   -0.00800   40.08800    0.01020  195.40770    6.85520    6.70630    0.34820   19.68760    2.16890    1.38880 2514.00000
 4330.00000    8.75000    1.02090    1.09640    0.97300    0.98380  102.90860   -0.00800   44.66860    0.01120  202.99850    7.74870    6.91750    0.38820   19.96300    2.16890    1.38880 2504.00000
 4329.50000    8.75000    1.02090    1.09640    0.97300    0.98380  129.76040   -0.00800   44.86020    0.01160  201.37910    7.54870    6.48060    0.38330   19.69530    2.16890    1.38880 2490.00000
 4329.00000    8.75000    1.09210    1.03860    0.97300    0.98380  162.43630   -0.00800   41.63990    0.01050  177.07810    7.19080    6.84990    0.41880   17.16830    2.16890    1.38880 2483.00000
 4328.50000    8.75000    1.04580    0.89790    0.97300    0.98380  194.26840   -0.00800   35.83230    0.00930  152.72890    6.00500    6.42510    0.41280   14.54570    2.16890    1.38880 2470.00000
 4328.00000    8.75000    1.04580    0.89790    0.97300    0.98380  221.77510   -0.00800   30.96320    0.00770  133.13680    5.41770    7.04900    0.43040   12.58690    2.16890    1.38880 2479.00000
 4327.50000    8.75000    0.94600    0.95600    0.97300    0.98380  232.11100   -0.00800   31.34060    0.00770  132.19190    5.51400    7.13520    0.44420   12.41330    2.16890    1.38880 2480.00000
 4327.00000    8.75000    1.00520    0.95600    0.97300    0.98380  246.64940   -0.00800   31.61900    0.00740  128.60420    5.77090    7.75510    0.48340   11.93730    2.16890    1.38880 2476.00000
 4326.50000    8.75000    1.00520    1.06510    0.97300    0.98380  242.71980   -0.00800   34.11040    0.00760  141.86110    6.45400    8.45040    0.49140   13.13490    2.16890    1.38880 2483.00000
 4326.00000    8.75000    1.09990    1.12060    0.97300    0.98380  224.52870   -0.00800   35.88480    0.00760  151.75570    7.02020    9.18720    0.49500   14.18200    2.16890    1.38880 2494.00000
 4325.50000    8.75000    1.09990    1.12060    0.97300    0.98380  185.13040   -0.00800   41.75580    0.00910  171.52100    8.02670    8.78790    0.50520   15.88740    2.16890    1.38880 2500.00000
 4325.00000    8.75000    1.06820    1.10270    0.97300    0.98380  167.76520   -0.00800   47.70960    0.01180  176.86630    8.38230    7.11360    0.53180   15.76170    2.16890    1.38880 2512.00000
 4324.50000    8.75000    1.06120    1.10270    0.97300    0.98380  155.17500   -0.00800   52.29950    0.01310  175.66390    9.10250    6.96760    0.60310   15.09190    2.16890    1.38880 2516.00000
 4324.00000    8.75000    1.06120    1.06120    0.97300    0.98380  155.92310   -0.00800   52.91630    0.01250  162.27920    9.61980    7.68510    0.71260   13.49920    2.16890    1.38880 2499.00000
 4323.50000    8.75000    1.04810    0.95240    0.97300    0.98380  163.46450   -0.00800   50.34880    0.01300  150.87400    8.51280    6.54650    0.68840   12.36570    2.16890    1.38880 2502.00000
 4323.00000    8.75000    1.04810    0.95240    0.97300    0.98380  174.86400   -0.00800   49.11750    0.01360  141.42240    7.74730    5.68080    0.67900   11.41020    2.16890    1.38880 2488.00000
 4322.50000    8.75000    0.95310    0.96110    0.97300    0.98380  182.64200   -0.00800   43.69010    0.01260  132.44600    6.60100    5.22810    0.59030   11.18170    2.16890    1.38880 2488.00000
 4322.00000    8.75000    0.96300    0.96110    0.97300    0.98380  172.49470   -0.00800   39.14130    0.01120  124.75380    5.99270    5.36190    0.55340   10.82860    2.16890    1.38880 2481.00000
