~Version ---------------------------------------------------
VERS     .                                                                         2.0 : CWLS log ASCII Standard -VERSION 2.0
WRAP     .                                                                          NO : One Line per depth step
PROD     .                                                                Schlumberger : LAS Producer
PROG     .                                                      DLIS to ASCII 15C0-309 : LAS Program name and version
CREA     . 2008/02/21 06:26                          :LAS Creation date {YYYY/MM/DD hh : mm}
DLIS_CREA.     2008-Feb-20	21:27			       :DLIS Creation date and time {YYYY-MMM-DD hh : mm}
SOURCE   .                                           MAIN_AIT_TLD_MCFL_CNL_046PUP.DLIS : DLIS File Name
FILE-ID  .                                                     AIT_TLD_MCFL_CNL_046PUP : File Identification Number
~Well ------------------------------------------------------
STRT.F     10520.0 : START DEPTH
STOP.F      2062.0 : STOP DEPTH
STEP.F        -0.5 : STEP
NULL.      -999.25 : NULL VALUE
COMP.              : COMPANY
WELL.       Bakken : WELL
FLD .              : FIELD
LOC .              : LOCATION
CNTY.              : COUNTY
STAT.    N. DAKOTA : STATE
CTRY.              : COUNTRY
API .              : API NUMBER
UWI .              : UNIQUE WELL ID
DATE.  20-Feb-2008 : LOG DATE {DD-MMM-YYYY}
SRVC. Schlumberger : SERVICE COMPANY
LATI.DEG         0 : LATITUDE
LONG.DEG         0 : LONGITUDE
GDAT.              : GeoDetic Datum
SECT.              : Section
RANG.              : Range
TOWN.              : Township
~Curve Information -----------------------------------------
DEPT   .F     : DEPTH (BOREHOLE) {F10.1}
BS     .IN    : Bit Size {F13.4}
CHI1   .      : HNGS Detector 1 Chi Squared {F13.4}
CHI2   .      : HNGS Detector 2 Chi Squared {F13.4}
GCF1   .      : HNGS Detector 1 Gain Correction Factor {F13.4}
GCF2   .      : HNGS Detector 2 Gain Correction Factor {F13.4}
GR_EDTC.GAPI  : Gamma Ray {F13.4}
HBHK   .CFCF  : HNGS Borehole Potassium Concentration {F13.4}
HCGR   .GAPI  : HNGS Computed Gamma Ray {F13.4}
HFK    .CFCF  : HNGS Formation Potassium Concentration {F13.4}
HSGR   .GAPI  : HNGS Standard Gamma Ray {F13.4}
HTHO   .PPM   : HNGS Formation Thorium Concentration {F13.4}
HTPR   .      : HNGS Thorium/Potassium Ratio {F13.4}
HTUR   .      : HNGS Thorium/Uranium Ratio {F13.4}
HURA   .PPM   : HNGS Formation Uranium Concentration {F13.4}
RDF1   .      : HNGS Detector 1 Resolution Degradation Factor {F13.4}
RDF2   .      : HNGS Detector 2 Resolution Degradation Factor {F13.4}
TENS   .LBF   : Cable Tension {F13.4}
~Params ----------------------------------------------------
RUN .           ONE : RUN NUMBER
PDAT.  GROUND LEVEL : Permanent Datum
EPD .F       2111.0 : Elevation of Permanent Datum above Mean Sea Level
LMF . KELLY BUSHING : Logging Measured From (Name of Logging Elevation Reference)
APD .F         18.0 : Elevation of Depth Reference (LMF) above Permanent Datum
~Other -----------------------------------------------------
~ASCII -----------------------------------------------------
# ...
 2087.00000    8.75000    0.94030    0.95390    0.97260    0.98090   97.16750   -0.00640   73.54390    0.01550   91.60640   14.47910    9.33160    5.75440    2.51620    0.00000    1.23020 1732.00000
 2086.50000    8.75000    0.94030    0.95390    0.97260    0.98090  105.66830   -0.00640   75.47920    0.01590   93.20230   14.84750    9.31120    5.79470    2.56220    0.00000    1.23020 1750.00000
 2086.00000    8.75000    0.89460    0.93320    0.97260    0.98090  110.00840   -0.00640   75.20790    0.01640   90.77790   14.47560    8.80920    6.33020    2.28670    0.00000    1.23020 1751.00000
 2085.50000    8.75000    0.89170    0.93320    0.97260    0.98090  101.16820   -0.00640   75.22140    0.01690   88.29280   14.18520    8.37590    7.88240    1.79960    0.00000    1.23020 1768.00000
 2085.00000    8.75000    0.89170    0.93000    0.97260    0.98090   93.50320   -0.00640   75.63430    0.01710   86.95860   14.23660    8.33820    9.68500    1.47000    0.00000    1.23020 1768.00000
 2084.50000    8.75000    0.91810    0.97900    0.97260    0.98090   98.08770   -0.00640   75.49110    0.01770   85.98810   13.85280    7.84800   10.76990    1.28630    0.00000    1.23020 1742.00000
 2084.00000    8.75000    0.91810    0.97900    0.97260    0.98090  100.10390   -0.00640   75.92520    0.01810   87.01510   13.70440    7.55380   10.19390    1.34440    0.00000    1.23020 1731.00000
 2083.50000    8.75000    0.96710    0.96470    0.97260    0.98090   95.20660   -0.00640   76.94820    0.01900   90.05630   13.53910    7.13160    8.17310    1.65650    0.00000    1.23020 1723.00000
 2083.00000    8.75000    0.93770    0.96470    0.97260    0.98090   85.46590   -0.00640   80.35380    0.02070   91.89970   13.61570    6.57200    9.08810    1.49820    0.00000    1.23020 1737.00000
 2082.50000    8.75000    0.93770    0.89990    0.97260    0.98090   84.14820   -0.00640   80.73710    0.02230   93.61770   12.78670    5.72270    7.54930    1.69380    0.00000    1.23020 1750.00000
 2082.00000    8.75000    0.95120    0.94030    0.97260    0.98090   87.41300   -0.00640   80.27620    0.02400   94.16590   11.67920    4.86970    6.72000    1.73800    0.00000    1.23020 1751.00000
 2081.50000    8.75000    0.95120    0.94030    0.97260    0.98090   92.76260   -0.00640   81.78770    0.02470   94.61160   11.75350    4.76170    7.59500    1.54750    0.00000    1.23020 1751.00000
 2081.00000    8.75000    0.95960    0.93580    0.97260    0.98090   94.31630   -0.00640   82.72290    0.02480   95.49940   11.97590    4.82590    7.55370    1.58540    0.00000    1.23020 1742.00000
 2080.50000    8.75000    0.97310    0.93580    0.97260    0.98090   97.08950   -0.00640   84.92350    0.02360   95.10640   13.38390    5.66750    9.84100    1.36000    0.00000    1.23020 1721.00000
 2080.00000    8.75000    0.97310    0.93720    0.97260    0.98090   96.63710   -0.00640   89.51520    0.02290   96.31110   15.25690    6.65410   15.04050    1.01440    0.00000    1.23020 1714.00000
 2079.50000    8.75000    0.94080    0.90590    0.97260    0.98090  100.81590   -0.00640   88.48910    0.02290   95.29330   14.97010    6.54950   12.83850    1.16600    0.00000    1.23020 1740.00000
 2079.00000    8.75000    0.94080    0.90590    0.97260    0.98090  100.49140   -0.00640   87.86430    0.02270   95.61680   14.85460    6.54050   10.53900    1.40950    0.00000    1.23020 1753.00000
 2078.50000    8.75000    0.93630    0.94570    0.97260    0.98090  101.40540   -0.00640   91.01060    0.02410   95.63320   15.03990    6.23620   13.52520    1.11200    0.00000    1.23020 1761.00000
 2078.00000    8.75000    1.06040    0.94570    0.97260    0.98090  104.02010   -0.00640   94.09180    0.02530   94.46530   15.35420    6.07690   26.17930    0.58650    0.00000    1.23020 1764.00000
 2077.50000    8.75000    1.06040    0.97540    0.97260    0.98090   95.24430   -0.00640   91.95940    0.02510   92.79540   14.78550    5.89740   21.11840    0.70010    0.00000    1.23020 1740.00000
 2077.00000    8.75000    0.96640    0.94500    0.97260    0.98090  100.25760   -0.00640   88.05830    0.02440   91.16660   13.93260    5.71170   16.28130    0.85570    0.00000    1.23020 1739.00000
 2076.50000    8.75000    0.96640    0.94500    0.97260    0.98090   98.61290   -0.00640   88.00810    0.02400   93.21740   14.14300    5.89140   13.18370    1.07280    0.00000    1.23020 1724.00000
 2076.00000    8.75000    0.95160    0.95290    0.97260    0.98090   98.32730   -0.00640   90.25410    0.02330   95.83760   15.29020    6.56910   12.96090    1.17970    0.00000    1.23020 1731.00000
 2075.50000    8.75000    0.95160    0.95290    0.97260    0.98090   89.35010   -0.00640   94.07650    0.02330   99.12020   16.49340    7.07490   15.32950    1.07590    0.00000    1.23020 1753.00000
 2075.00000    8.75000    0.94410    0.92840    0.97260    0.98090   87.72510   -0.00640   93.64360    0.02340   99.83370   16.32310    6.98560   14.70580    1.11000    0.00000    1.23020 1756.00000
 2074.50000    8.75000    0.95740    0.89720    0.97260    0.98090   93.52160   -0.00640   90.49940    0.02440  100.45070   14.70910    6.02770    9.59500    1.53300    0.00000    1.23020 1759.00000
 2074.00000    8.75000    0.95740    0.89720    0.97260    0.98090   97.63330   -0.00640   88.08460    0.02390   99.19920   14.24420    5.96610    8.63530    1.64950    0.00000    1.23020 1749.00000
 2073.50000    8.75000    0.88620    1.01580    0.97260    0.98090  101.56290   -0.00640   88.15770    0.02340   98.14870   14.55660    6.22560   10.44520    1.39360    0.00000    1.23020 1747.00000
 2073.00000    8.75000    0.88620    1.01580    0.97260    0.98090   96.87430   -0.00640   82.76740    0.02090   95.52130   14.27140    6.82220    8.63560    1.65260    0.00000    1.23020 1747.00000
 2072.50000    8.75000    0.92170    0.89070    0.97260    0.98090   86.24780   -0.00640   75.36730    0.01920   93.64950   12.93010    6.74840    5.64780    2.28940    0.00000    1.23020 1751.00000
 2072.00000    8.75000    0.95160    0.89070    0.97260    0.98090   92.66990   -0.00640   71.19290    0.01810   92.42040   12.23070    6.76840    4.64720    2.63180    0.00000    1.23020 1757.00000
 2071.50000    8.75000    0.95160    0.97740    0.97260    0.98090   97.45630   -0.00640   71.58020    0.01800   91.90880   12.38200    6.86980    4.77170    2.59490    0.00000    1.23020 1765.00000
 2071.00000    8.75000    0.92850    0.94210    0.97260    0.98090  103.14870   -0.00640   72.76650    0.01810   91.78770   12.70860    7.01540    5.13700    2.47390    0.00000    1.23020 1766.00000
 2070.50000    8.75000    0.92850    0.94210    0.97260    0.98090   99.88390   -0.00640   73.39700    0.01900   93.20100   12.40410    6.53520    4.93750    2.51220    0.00000    1.23020 1764.00000
 2070.00000    8.75000    0.94280    0.91290    0.97260    0.98090  111.28190   -0.00640   75.78440    0.02100   94.83640   11.99400    5.71490    4.90940    2.44310    0.00000    1.23020 1752.00000
 2069.50000    8.75000    0.98220    0.91290    0.97260    0.98090  120.86770   -0.00640   75.09860    0.02230   95.55710   11.02700    4.95300    4.08780    2.69750    0.00000    1.23020 1745.00000
 2069.00000    8.75000    0.98220    0.93980    0.97260    0.98090  120.98500   -0.00640   72.81710    0.02130   94.02960   10.84560    5.08590    3.82470    2.83570    0.00000    1.23020 1752.00000
 2068.50000    8.75000    0.92200    0.92520    0.97260    0.98090  113.51650   -0.00640   72.70520    0.02090   92.98600   11.03350    5.26840    4.10220    2.68970    0.00000    1.23020 1751.00000
 2068.00000    8.75000    0.92200    0.92520    0.97260    0.98090   99.81900   -0.00640   69.48720    0.02030   90.84890   10.35560    5.09140    3.59400    2.88130    0.00000    1.23020 1751.00000
 2067.50000    8.75000    0.91090    0.95670    0.97260    0.98090   96.54430   -0.00640   66.01210    0.01970   88.15830    9.60280    4.86880    3.38280    2.83870    0.00000    1.23020 1755.00000
 2067.00000    8.75000    0.90140    0.95670    0.97260    0.98090   97.41430   -0.00640   66.45390    0.01920   84.96730   10.07960    5.26330    4.38390    2.29920    0.00000    1.23020 1756.00000
