~Version ---------------------------------------------------
VERS     .                                                                         2.0 : CWLS log ASCII Standard -VERSION 2.0
WRAP     .                                                                          NO : One Line per depth step
PROD     .                                                                Schlumberger : LAS Producer
PROG     .                                                      DLIS to ASCII 15C0-309 : LAS Program name and version
CREA     . 2008/02/21 06:26                          :LAS Creation date {YYYY/MM/DD hh : mm}
DLIS_CREA.     2008-Feb-20	21:27			       :DLIS Creation date and time {YYYY-MMM-DD hh : mm}
SOURCE   .                                           MAIN_AIT_TLD_MCFL_CNL_046PUP.DLIS : DLIS File Name
FILE-ID  .                                                     AIT_TLD_MCFL_CNL_046PUP : File Identification Number
~Well ------------------------------------------------------
STRT.F     10520.0 : START DEPTH
STOP.F      2062.0 : STOP DEPTH
STEP.F        -0.5 : STEP
NULL.      -999.25 : NULL VALUE
COMP.              : COMPANY
WELL.       Bakken : WELL
FLD .              : FIELD
LOC .              : LOCATION
CNTY.              : COUNTY
STAT.    N. DAKOTA : STATE
CTRY.              : COUNTRY
API .              : API NUMBER
UWI .              : UNIQUE WELL ID
DATE.  20-Feb-2008 : LOG DATE {DD-MMM-YYYY}
SRVC. Schlumberger : SERVICE COMPANY
LATI.DEG         0 : LATITUDE
LONG.DEG         0 : LONGITUDE
GDAT.              : GeoDetic Datum
SECT.              : Section
RANG.              : Range
TOWN.              : Township
~Curve Information -----------------------------------------
DEPT   .F     : DEPTH (BOREHOLE) {F10.1}
BS     .IN    : Bit Size {F13.4}
CHI1   .      : HNGS Detector 1 Chi Squared {F13.4}
CHI2   .      : HNGS Detector 2 Chi Squared {F13.4}
GCF1   .      : HNGS Detector 1 Gain Correction Factor {F13.4}
GCF2   .      : HNGS Detector 2 Gain Correction Factor {F13.4}
GR_EDTC.GAPI  : Gamma Ray {F13.4}
HBHK   .CFCF  : HNGS Borehole Potassium Concentration {F13.4}
HCGR   .GAPI  : HNGS Computed Gamma Ray {F13.4}
HFK    .CFCF  : HNGS Formation Potassium Concentration {F13.4}
HSGR   .GAPI  : HNGS Standard Gamma Ray {F13.4}
HTHO   .PPM   : HNGS Formation Thorium Concentration {F13.4}
HTPR   .      : HNGS Thorium/Potassium Ratio {F13.4}
HTUR   .      : HNGS Thorium/Uranium Ratio {F13.4}
HURA   .PPM   : HNGS Formation Uranium Concentration {F13.4}
RDF1   .      : HNGS Detector 1 Resolution Degradation Factor {F13.4}
RDF2   .      : HNGS Detector 2 Resolution Degradation Factor {F13.4}
TENS   .LBF   : Cable Tension {F13.4}
~Params ----------------------------------------------------
RUN .           ONE : RUN NUMBER
PDAT.  GROUND LEVEL : Permanent Datum
EPD .F       2111.0 : Elevation of Permanent Datum above Mean Sea Level
LMF . KELLY BUSHING : Logging Measured From (Name of Logging Elevation Reference)
APD .F         18.0 : Elevation of Depth Reference (LMF) above Permanent Datum
~Other -----------------------------------------------------
~ASCII -----------------------------------------------------
# ...
 6023.00000    8.75000    0.86950    0.85890    0.97160    0.98410  111.33670   -0.00990   64.16350    0.01610   71.74700   11.13670    6.92350    9.38100    1.18720    1.67400    1.00990 3067.00000
 6022.50000    8.75000    0.92670    0.85870    0.97160    0.98410  115.62300   -0.00990   56.86500    0.01480   63.04110    9.55150    6.45390   10.59920    0.90110    1.67400    1.00990 3065.00000
 6022.00000    8.75000    0.92670    0.85870    0.97160    0.98410  116.52650   -0.00990   60.63420    0.01620   67.50690    9.95470    6.15490   10.72420    0.92820    1.67400    1.00990 3068.00000
 6021.50000    8.75000    0.92140    0.93670    0.97160    0.98410  121.76580   -0.00990   61.82920    0.01660   68.06470   10.07960    6.06700   13.63380    0.73930    1.67400    1.00990 3081.00000
 6021.00000    8.75000    0.84470    0.93670    0.97160    0.98410  104.38110   -0.00990   62.24320    0.01690   67.00930   10.04170    5.94000   19.49280    0.51510    1.67400    1.00990 3085.00000
 6020.50000    8.75000    0.84470    0.86440    0.97160    0.98410   89.72420   -0.00990   58.46040    0.01610   61.44580    9.32700    5.80900   18.65410    0.25750    1.67400    1.00990 3071.00000
 6020.00000    8.75000    0.90430    0.88160    0.97160    0.98410   79.02880   -0.00990   55.36330    0.01560   57.82740    8.62590    5.54400   17.25180    0.21140    1.67400    1.00990 3071.00000
 6019.50000    8.75000    0.84240    0.88160    0.97160    0.98410   80.33870   -0.00990   52.12600    0.01430   56.26110    8.31770    5.81080   16.63540    0.38600    1.67400    1.00990 3045.00000
 6019.00000    8.75000    0.84240    0.87120    0.97160    0.98410   73.13450   -0.00990   48.42520    0.01290   54.17140    7.93340    6.12810   14.30110    0.55470    1.67400    1.00990 3045.00000
 6018.50000    8.75000    0.85400    0.83030    0.97160    0.98410   70.20680   -0.00990   48.64210    0.01300   54.56540    7.95460    6.10570   14.86500    0.53510    1.67400    1.00990 3056.00000
 6018.00000    8.75000    0.85400    0.83030    0.97160    0.98410   62.22300   -0.00990   44.69360    0.01170   52.29200    7.45370    6.35810   10.77690    0.69160    1.67400    1.00990 3051.00000
 6017.50000    8.75000    0.86480    0.82660    0.97160    0.98410   58.19990   -0.00990   40.93780    0.01040   49.31600    7.02280    6.75000    8.70620    0.80660    1.67400    1.00990 3076.00000
 6017.00000    8.75000    0.84710    0.83600    0.97160    0.98410   52.17540   -0.00990   37.45010    0.00910   46.33710    6.69030    7.38150    7.49710    0.89240    1.67400    1.00990 3067.00000
 6016.50000    8.75000    0.84710    0.83600    0.97160    0.98410   47.71570   -0.00990   37.19600    0.00920   46.99930    6.51520    7.06360    6.52150    0.99900    1.67400    1.00990 3079.00000
 6016.00000    8.75000    0.82360    0.87070    0.97160    0.98410   47.15430   -0.00990   36.49580    0.00960   45.61740    6.08640    6.35790    6.55450    0.92860    1.67400    1.00990 3085.00000
 6015.50000    8.75000    0.81720    0.82850    0.97160    0.98410   52.65760   -0.00990   36.79540    0.00970   44.22030    6.11820    6.31870    7.29800    0.83830    1.67400    1.00990 3061.00000
 6015.00000    8.75000    0.81720    0.82850    0.97160    0.98410   60.66260   -0.00990   38.19660    0.01010   44.16610    6.33350    6.28210    8.17950    0.77430    1.67400    1.00990 3067.00000
 6014.50000    8.75000    0.82850    0.86620    0.97160    0.98410   61.31760   -0.00990   40.34060    0.01020   47.33810    6.92630    6.76240    7.56150    0.91600    1.67400    1.00990 3043.00000
 6014.00000    8.75000    0.85170    0.86620    0.97160    0.98410   57.36540   -0.00990   39.72860    0.01060   49.58610    6.54770    6.20390    5.30020    1.23540    1.67400    1.00990 3045.00000
 6013.50000    8.75000    0.85170    0.85750    0.97160    0.98410   51.86700   -0.00990   37.13150    0.01030   49.32890    5.84440    5.65520    3.92250    1.49000    1.67400    1.00990 3042.00000
 6013.00000    8.75000    0.83400    0.86170    0.97160    0.98410   54.59720   -0.00990   36.52290    0.01080   48.65540    5.40440    5.02590    3.72570    1.45060    1.67400    1.00990 3046.00000
 6012.50000    8.75000    0.83400    0.86170    0.97160    0.98410   57.63050   -0.00990   39.81930    0.01180   48.61760    5.86130    4.97710    5.79480    1.01150    1.67400    1.00990 3049.00000
 6012.00000    8.75000    0.83550    0.86400    0.97160    0.98410   59.70830   -0.00990   44.26260    0.01290   52.01010    6.61120    5.11420    7.32210    0.90290    1.67400    1.00990 3050.00000
 6011.50000    8.75000    0.84500    0.82260    0.97160    0.98410   70.04210   -0.00990   46.99930    0.01450   55.40260    6.56550    4.52710    7.25820    0.90460    1.67400    1.00990 3051.00000
 6011.00000    8.75000    0.84500    0.82260    0.97160    0.98410   66.76750   -0.00990   47.97200    0.01400   54.24580    7.15240    5.09720   12.65100    0.56540    1.67400    1.00990 3052.00000
 6010.50000    8.75000    0.82230    0.83470    0.97160    0.98410   66.11260   -0.00990   46.53530    0.01320   51.13290    7.19800    5.46650   14.39610    0.29600    1.67400    1.00990 3071.00000
 6010.00000    8.75000    0.87320    0.83470    0.97160    0.98410   60.90770   -0.00990   44.37410    0.01190   49.24560    7.21880    6.04110   14.43770    0.32960    1.67400    1.00990 3052.00000
 6009.50000    8.75000    0.87320    0.85660    0.97160    0.98410   60.25270   -0.00990   45.38420    0.01160   50.89320    7.76690    6.71530   15.53380    0.38830    1.67400    1.00990 3067.00000
 6009.00000    8.75000    0.84000    0.86130    0.97160    0.98410   62.15350   -0.00990   45.08460    0.01130   49.43430    7.82060    6.91470   15.64130    0.22570    1.67400    1.00990 3065.00000
 6008.50000    8.75000    0.82530    0.86130    0.97160    0.98410   57.56900   -0.00990   42.28970    0.01090   44.53230    7.14140    6.52710   14.28280    0.05350    1.67400    1.00990 3057.00000
 6008.00000    8.75000    0.82530    0.80900    0.97160    0.98410   58.22400   -0.00990   40.65510    0.01080   41.23150    6.69800    6.19940   13.39600   -0.08460    1.67400    1.00990 3057.00000
 6007.50000    8.75000    0.81160    0.83350    0.97160    0.98410   62.21750   -0.00990   39.37290    0.01040   39.31260    6.49560    6.21670   12.99110   -0.11210    1.67400    1.00990 3069.00000
 6007.00000    8.75000    0.81160    0.83350    0.97160    0.98410   64.60580   -0.00990   45.78430    0.01290   47.38000    7.12960    5.53820   14.25930    0.15560    1.67400    1.00990 3051.00000
 6006.50000    8.75000    0.87170    0.88600    0.97160    0.98410   64.60580   -0.00990   54.48820    0.01650   56.94590    7.78950    4.71830   15.57900    0.21380    1.67400    1.00990 3060.00000
 6006.00000    8.75000    0.86290    0.89580    0.97160    0.98410   60.67620   -0.00990   65.88860    0.01970   66.53450    9.55070    4.83860   19.10150    0.04720    1.67400    1.00990 3048.00000
 6005.50000    8.75000    0.86290    0.89580    0.97160    0.98410   53.04860   -0.00990   57.21840    0.01790   58.43840    7.82540    4.36150   15.65070    0.18030    1.67400    1.00990 3055.00000
 6005.00000    8.75000    0.79830    0.87970    0.97160    0.98410   52.46750   -0.00990   47.41650    0.01590   50.27850    5.88270    3.70050   11.76540    0.42990    1.67400    1.00990 3058.00000
 6004.50000    8.75000    0.82380    0.87970    0.97160    0.98410   49.84790   -0.00990   36.89010    0.01280   40.92090    4.34040    3.39850    7.74230    0.56060    1.67400    1.00990 3061.00000
 6004.00000    8.75000    0.82380    0.81160    0.97160    0.98410   55.74220   -0.00990   35.29190    0.01260   41.02150    3.90750    3.09220    5.06690    0.77120    1.67400    1.00990 3057.00000
 6003.50000    8.75000    0.81590    0.80770    0.97160    0.98410   64.83720   -0.00990   33.08250    0.01230   38.29020    3.41570    2.78430    4.85070    0.70420    1.67400    1.00990 3043.00000
 6003.00000    8.75000    0.84170    0.80770    0.97160    0.98410   62.45880   -0.00990   33.34320    0.01250   37.42610    3.38330    2.71410    5.75090    0.58830    1.67400    1.00990 3039.00000
