~Version ---------------------------------------------------
VERS     .                                                                         2.0 : CWLS log ASCII Standard -VERSION 2.0
WRAP     .                                                                          NO : One Line per depth step
PROD     .                                                                Schlumberger : LAS Producer
PROG     .                                                      DLIS to ASCII 15C0-309 : LAS Program name and version
CREA     . 2008/02/21 06:26                          :LAS Creation date {YYYY/MM/DD hh : mm}
DLIS_CREA.     2008-Feb-20	21:27			       :DLIS Creation date and time {YYYY-MMM-DD hh : mm}
SOURCE   .                                           MAIN_AIT_TLD_MCFL_CNL_046PUP.DLIS : DLIS File Name
FILE-ID  .                                                     AIT_TLD_MCFL_CNL_046PUP : File Identification Number
~Well ------------------------------------------------------
STRT.F     10520.0 : START DEPTH
STOP.F      2062.0 : STOP DEPTH
STEP.F        -0.5 : STEP
NULL.      -999.25 : NULL VALUE
COMP.              : COMPANY
WELL.       Bakken : WELL
FLD .              : FIELD
LOC .              : LOCATION
CNTY.              : COUNTY
STAT.    N. DAKOTA : STATE
CTRY.              : COUNTRY
API .              : API NUMBER
UWI .              : UNIQUE WELL ID
DATE.  20-Feb-2008 : LOG DATE {DD-MMM-YYYY}
SRVC. Schlumberger : SERVICE COMPANY
LATI.DEG         0 : LATITUDE
LONG.DEG         0 : LONGITUDE
GDAT.              : GeoDetic Datum
SECT.              : Section
RANG.              : Range
TOWN.              : Township
~Curve Information -----------------------------------------
DEPT   .F     : DEPTH (BOREHOLE) {F10.1}
BS     .IN    : Bit Size {F13.4}
CHI1   .      : HNGS Detector 1 Chi Squared {F13.4}
CHI2   .      : HNGS Detector 2 Chi Squared {F13.4}
GCF1   .      : HNGS Detector 1 Gain Correction Factor {F13.4}
GCF2   .      : HNGS Detector 2 Gain Correction Factor {F13.4}
GR_EDTC.GAPI  : Gamma Ray {F13.4}
HBHK   .CFCF  : HNGS Borehole Potassium Concentration {F13.4}
HCGR   .GAPI  : HNGS Computed Gamma Ray {F13.4}
HFK    .CFCF  : HNGS Formation Potassium Concentration {F13.4}
HSGR   .GAPI  : HNGS Standard Gamma Ray {F13.4}
HTHO   .PPM   : HNGS Formation Thorium Concentration {F13.4}
HTPR   .      : HNGS Thorium/Potassium Ratio {F13.4}
HTUR   .      : HNGS Thorium/Uranium Ratio {F13.4}
HURA   .PPM   : HNGS Formation Uranium Concentration {F13.4}
RDF1   .      : HNGS Detector 1 Resolution Degradation Factor {F13.4}
RDF2   .      : HNGS Detector 2 Resolution Degradation Factor {F13.4}
TENS   .LBF   : Cable Tension {F13.4}
~Params ----------------------------------------------------
RUN .           ONE : RUN NUMBER
PDAT.  GROUND LEVEL : Permanent Datum
EPD .F       2111.0 : Elevation of Permanent Datum above Mean Sea Level
LMF . KELLY BUSHING : Logging Measured From (Name of Logging Elevation Reference)
APD .F         18.0 : Elevation of Depth Reference (LMF) above Permanent Datum
~Other -----------------------------------------------------
~ASCII -----------------------------------------------------
# ...
 8278.00000    8.75000    0.85450    0.84910    0.97050    0.98310    4.17060   -0.00550    1.19770    0.00050    3.14750    0.07170    0.71680    0.14340    0.22040    4.74960    5.10320 3680.00000
 8277.50000    8.75000    0.80440    0.82570    0.97050    0.98310    4.33800   -0.00550    1.44860    0.00060    3.73010    0.10250    1.02460    0.20490    0.26760    4.74960    5.10320 3670.00000
 8277.00000    8.75000    0.81640    0.85570    0.97050    0.98310    4.59010   -0.00550    1.62320    0.00070    3.93380    0.11010    1.10140    0.22030    0.28630    4.74960    5.10320 3652.00000
 8276.50000    8.75000    0.87070    0.86630    0.97050    0.98310    4.81910   -0.00550    2.68080    0.00110    6.21520    0.22890    2.13440    0.45770    0.45600    4.74960    5.10320 3698.00000
 8276.00000    8.75000    0.96190    0.97150    0.97050    0.98310    4.68970   -0.00550    3.96300    0.00160    8.98390    0.31980    1.97780    0.49420    0.64710    4.74960    5.10320 3699.00000
 8275.50000    8.75000    0.91040    0.99130    0.97050    0.98310    4.62670   -0.00550    5.30840    0.00230   11.49310    0.35540    1.55180    0.43470    0.81760    4.74960    5.10320 3681.00000
 8275.00000    8.75000    0.99210    0.93350    0.97050    0.98310    5.00490   -0.00550    5.93100    0.00260   12.46150    0.36020    1.37400    0.42880    0.84010    4.74960    5.10320 3723.00000
 8274.50000    8.75000    0.93640    0.95180    0.97050    0.98310    5.52090   -0.00550    5.56000    0.00250   11.94630    0.34200    1.39580    0.40590    0.84270    4.74960    5.10320 3697.00000
 8274.00000    8.75000    0.92760    0.96610    0.97050    0.98310    4.76380   -0.00550    5.88300    0.00260   11.86670    0.35360    1.35620    0.45100    0.78400    4.74960    5.10320 3719.00000
 8273.50000    8.75000    0.98470    0.95640    0.97050    0.98310    5.89170   -0.00550    6.93220    0.00310   13.28190    0.38630    1.23680    0.47390    0.81530    4.74960    5.10320 3739.00000
 8273.00000    8.75000    0.98040    1.02430    0.97050    0.98310    7.30510   -0.00550    7.13910    0.00330   14.27950    0.34630    1.04780    0.38560    0.89810    4.74960    5.10320 3729.00000
 8272.50000    8.75000    0.97080    0.97080    0.97050    0.98310   11.37490   -0.00550    7.27410    0.00320   13.13080    0.47650    1.50960    0.66200    0.71980    4.74960    5.10320 3731.00000
 8272.00000    8.75000    0.90680    0.90490    0.97050    0.98310   14.20240   -0.00550    5.36340    0.00230    9.57970    0.36600    1.58990    0.71810    0.50970    4.74960    5.10320 3748.00000
 8271.50000    8.75000    0.86600    0.87940    0.97050    0.98310   16.15660   -0.00550    3.83290    0.00150    6.43880    0.32200    2.08830    0.64400    0.30860    4.74960    5.10320 3726.00000
 8271.00000    8.75000    0.81870    0.86440    0.97050    0.98310   14.55000   -0.00550    3.34150    0.00130    5.42500    0.30560    2.34750    0.61120    0.23950    4.74960    5.10320 3734.00000
 8270.50000    8.75000    0.85240    0.86270    0.97050    0.98310   13.68360   -0.00550    3.80200    0.00150    5.82380    0.36300    2.49480    0.72600    0.22390    4.74960    5.10320 3716.00000
 8270.00000    8.75000    0.89080    0.89540    0.97050    0.98310   13.99560   -0.00550    4.92320    0.00190    6.82200    0.48410    2.60250    0.96820    0.20560    4.74960    5.10320 3718.00000
 8269.50000    8.75000    0.89030    0.90280    0.97050    0.98310   15.53780   -0.00550    5.78860    0.00210    7.56590    0.60980    2.87980    1.21970    0.22620    4.74960    5.10320 3734.00000
 8269.00000    8.75000    0.96210    0.90020    0.97050    0.98310   14.41220   -0.00550    7.67250    0.00280    9.32400    0.79950    2.83350    1.59910    0.21930    4.74960    5.10320 3739.00000
 8268.50000    8.75000    0.99570    0.99120    0.97050    0.98310   11.01130   -0.00550   10.87080    0.00390   12.85740    1.16190    2.94290    2.32390    0.27710    4.74960    5.10320 3705.00000
 8268.00000    8.75000    0.93340    1.16790    0.97050    0.98310    8.44090   -0.00550   16.15800    0.00580   19.29160    1.77100    3.05700    3.54200    0.43190    4.74960    5.10320 3695.00000
 8267.50000    8.75000    1.32000    1.03460    0.97050    0.98310    7.28420   -0.00550   23.89200    0.00860   28.15200    2.58000    2.98870    4.28480    0.60210    4.74960    5.10320 3679.00000
 8267.00000    8.75000    1.19100    1.14040    0.97050    0.98310    8.09690   -0.00550   29.28600    0.01080   34.87470    3.06370    2.84990    3.96680    0.77230    4.74960    5.10320 3679.00000
 8266.50000    8.75000    1.23850    1.14970    0.97050    0.98310    7.49230   -0.00550   30.89130    0.01150   36.78910    3.12820    2.71640    3.83400    0.81590    4.74960    5.10320 3710.00000
 8266.00000    8.75000    1.21630    1.17870    0.97050    0.98310    9.86990   -0.00550   27.28160    0.01040   33.26180    2.60360    2.49330    3.42050    0.76120    4.74960    5.10320 3700.00000
 8265.50000    8.75000    1.13480    1.14810    0.97050    0.98310   14.58110   -0.00550   24.05230    0.00930   29.41610    2.25310    2.42820    3.35090    0.67240    4.74960    5.10320 3693.00000
 8265.00000    8.75000    1.16990    1.04410    0.97050    0.98310   22.31840   -0.00550   21.30410    0.00820   26.54990    2.00500    2.44450    3.01300    0.66550    4.74960    5.10320 3656.00000
 8264.50000    8.75000    0.96690    1.21370    0.97050    0.98310   29.03620   -0.00550   19.14070    0.00740   24.63470    1.78860    2.41990    2.57880    0.69360    4.74960    5.10320 3664.00000
 8264.00000    8.75000    1.03030    0.99320    0.97050    0.98310   34.99960   -0.00550   18.18120    0.00700   23.76420    1.71170    2.44560    2.60250    0.65770    4.74960    5.10320 3682.00000
 8263.50000    8.75000    1.05820    1.10760    0.97050    0.98310   40.01210   -0.00550   16.97940    0.00670   23.60370    1.51620    2.27080    2.03390    0.74550    4.74960    5.10320 3661.00000
 8263.00000    8.75000    1.07550    1.10840    0.97050    0.98310   39.82250   -0.00550   15.28300    0.00630   22.36260    1.22010    1.95000    1.53190    0.79650    4.74960    5.10320 3689.00000
 8262.50000    8.75000    1.03760    1.00560    0.97050    0.98310   37.53570   -0.00550   12.21590    0.00510   18.67710    0.92220    1.81100    1.21070    0.76170    4.74960    5.10320 3658.00000
 8262.00000    8.75000    0.96270    1.01490    0.97050    0.98310   32.77940   -0.00550    9.96460    0.00410   15.67030    0.77410    1.88060    1.15870    0.66810    4.74960    5.10320 3643.00000
 8261.50000    8.75000    0.98980    1.08300    0.97050    0.98310   31.13420   -0.00550   10.09860    0.00420   15.63600    0.77920    1.86370    1.14100    0.68290    4.74960    5.10320 3671.00000
 8261.00000    8.75000    0.99960    1.02670    0.97050    0.98310   28.59420   -0.00550   12.42200    0.00510   19.36170    0.96910    1.89120    1.13300    0.85540    4.74960    5.10320 3661.00000
 8260.50000    8.75000    1.17060    1.15340    0.97050    0.98310   25.84620   -0.00550   16.05560    0.00660   24.35640    1.28580    1.95810    1.20820    1.06430    4.74960    5.10320 3630.00000
 8260.00000    8.75000    1.17600    1.18090    0.97050    0.98310   26.74680   -0.00550   16.81270    0.00720   26.95730    1.16980    1.62960    0.90400    1.29410    4.74960    5.10320 3667.00000
 8259.50000    8.75000    1.02520    1.18200    0.97050    0.98310   25.16760   -0.00550   18.07640    0.00770   28.15220    1.26750    1.64580    0.97790    1.29610    4.74960    5.10320 3627.00000
 8259.00000    8.75000    1.21480    1.19710    0.97050    0.98310   22.96850   -0.00550   18.16780    0.00770   27.95780    1.28160    1.65850    1.03020    1.24410    4.74960    5.10320 3662.00000
 8258.50000    8.75000    1.13690    1.28260    0.97050    0.98310   17.59110   -0.00550   18.82440    0.00810   28.40700    1.30120    1.61590    1.05300    1.23570    4.74960    5.10320 3637.00000
 8258.00000    8.75000    1.10590    1.12100    0.97050    0.98310   17.88500   -0.00550   19.57190    0.00820   28.22600    1.47590    1.80830    1.33600    1.10470    4.74960    5.10320 3644.00000
