~Version ---------------------------------------------------
VERS     .                                                                         2.0 : CWLS log ASCII Standard -VERSION 2.0
WRAP     .                                                                          NO : One Line per depth step
PROD     .                                                                Schlumberger : LAS Producer
PROG     .                                                      DLIS to ASCII 15C0-309 : LAS Program name and version
CREA     . 2008/02/21 06:26                          :LAS Creation date {YYYY/MM/DD hh : mm}
DLIS_CREA.     2008-Feb-20	21:27			       :DLIS Creation date and time {YYYY-MMM-DD hh : mm}
SOURCE   .                                           MAIN_AIT_TLD_MCFL_CNL_046PUP.DLIS : DLIS File Name
FILE-ID  .                                                     AIT_TLD_MCFL_CNL_046PUP : File Identification Number
~Well ------------------------------------------------------
STRT.F     10520.0 : START DEPTH
STOP.F      2062.0 : STOP DEPTH
STEP.F        -0.5 : STEP
NULL.      -999.25 : NULL VALUE
COMP.              : COMPANY
WELL.       Bakken : WELL
FLD .              : FIELD
LOC .              : LOCATION
CNTY.              : COUNTY
STAT.    N. DAKOTA : STATE
CTRY.              : COUNTRY
API .              : API NUMBER
UWI .              : UNIQUE WELL ID
DATE.  20-Feb-2008 : LOG DATE {DD-MMM-YYYY}
SRVC. Schlumberger : SERVICE COMPANY
LATI.DEG         0 : LATITUDE
LONG.DEG         0 : LONGITUDE
GDAT.              : GeoDetic Datum
SECT.              : Section
RANG.              : Range
TOWN.              : Township
~Curve Information -----------------------------------------
DEPT   .F     : DEPTH (BOREHOLE) {F10.1}
BS     .IN    : Bit Size {F13.4}
CHI1   .      : HNGS Detector 1 Chi Squared {F13.4}
CHI2   .      : HNGS Detector 2 Chi Squared {F13.4}
GCF1   .      : HNGS Detector 1 Gain Correction Factor {F13.4}
GCF2   .      : HNGS Detector 2 Gain Correction Factor {F13.4}
GR_EDTC.GAPI  : Gamma Ray {F13.4}
HBHK   .CFCF  : HNGS Borehole Potassium Concentration {F13.4}
HCGR   .GAPI  : HNGS Computed Gamma Ray {F13.4}
HFK    .CFCF  : HNGS Formation Potassium Concentration {F13.4}
HSGR   .GAPI  : HNGS Standard Gamma Ray {F13.4}
HTHO   .PPM   : HNGS Formation Thorium Concentration {F13.4}
HTPR   .      : HNGS Thorium/Potassium Ratio {F13.4}
HTUR   .      : HNGS Thorium/Uranium Ratio {F13.4}
HURA   .PPM   : HNGS Formation Uranium Concentration {F13.4}
RDF1   .      : HNGS Detector 1 Resolution Degradation Factor {F13.4}
RDF2   .      : HNGS Detector 2 Resolution Degradation Factor {F13.4}
TENS   .LBF   : Cable Tension {F13.4}
~Params ----------------------------------------------------
RUN .           ONE : RUN NUMBER
PDAT.  GROUND LEVEL : Permanent Datum
EPD .F       2111.0 : Elevation of Permanent Datum above Mean Sea Level
LMF . KELLY BUSHING : Logging Measured From (Name of Logging Elevation Reference)
APD .F         18.0 : Elevation of Depth Reference (LMF) above Permanent Datum
~Other -----------------------------------------------------
~ASCII -----------------------------------------------------
# ...
 7150.50000    8.75000    0.77510    0.74020    0.97010    0.98080   24.13720   -0.00620   20.98760    0.00660   20.42740    2.85070    4.31000    5.70130   -0.05150    2.03870    0.00000 3403.00000
 7150.00000    8.75000    0.78310    0.79510    0.97010    0.98080   23.57720   -0.00620   26.66060    0.00890   26.20270    3.34130    3.76280    6.68270   -0.13940    2.03870    0.00000 3432.00000
 7149.50000    8.75000    0.80250    0.81810    0.97010    0.98080   24.95020   -0.00620   30.58390    0.01130   32.00000    3.20550    2.84710    6.41100    0.07640    2.03870    0.00000 3426.00000
 7149.00000    8.75000    0.81240    0.81810    0.97010    0.98080   19.71080   -0.00620   32.71180    0.01370   35.94300    2.43140    1.76880    4.86280    0.29600    2.03870    0.00000 3433.00000
 7148.50000    8.75000    0.81240    0.81440    0.97010    0.98080   20.36570   -0.00620   32.44420    0.01410   35.70270    2.15950    1.53550    4.31910    0.18030    2.03870    0.00000 3439.00000
 7148.00000    8.75000    0.82840    0.80100    0.97010    0.98080   17.68290   -0.00620   32.37050    0.01420   35.09810    2.07830    1.46750    4.15670    0.14550    2.03870    0.00000 3446.00000
 7147.50000    8.75000    0.80700    0.80100    0.97010    0.98080   21.61240   -0.00620   32.14790    0.01380   35.75330    2.23360    1.62140    4.46720    0.36060    2.03870    0.00000 3440.00000
 7147.00000    8.75000    0.80700    0.83700    0.97010    0.98080   28.07980   -0.00620   35.57710    0.01560   39.94390    2.29090    1.47290    4.58180    0.44780    2.03870    0.00000 3434.00000
 7146.50000    8.75000    0.85020    0.83370    0.97010    0.98080   36.59380   -0.00620   37.69380    0.01660   41.61200    2.33120    1.40070    4.66250    0.33230    2.03870    0.00000 3431.00000
 7146.00000    8.75000    0.82180    0.82250    0.97010    0.98080   43.79790   -0.00620   36.91830    0.01610   40.93680    2.38840    1.48150    4.77680    0.37050    2.03870    0.00000 3423.00000
 7145.50000    8.75000    0.82180    0.82250    0.97010    0.98080   43.96260   -0.00620   37.85040    0.01590   40.71340    2.82530    1.77850    5.65060    0.30690    2.03870    0.00000 3409.00000
 7145.00000    8.75000    0.82080    0.83510    0.97010    0.98080   39.30800   -0.00620   33.94180    0.01340   38.26590    3.02170    2.25310    5.48810    0.55060    2.03870    0.00000 3422.00000
 7144.50000    8.75000    0.80110    0.81960    0.97010    0.98080   38.73200   -0.00620   31.03490    0.01190   35.81850    3.00170    2.53200    4.42850    0.67780    2.03870    0.00000 3421.00000
 7144.00000    8.75000    0.80110    0.81960    0.97010    0.98080   45.19840   -0.00620   25.02390    0.00950   30.17250    2.47500    2.61490    3.58310    0.69070    2.03870    0.00000 3431.00000
 7143.50000    8.75000    0.83230    0.80540    0.97010    0.98080   48.54320   -0.00620   24.94200    0.00880   31.95170    2.83510    3.21990    3.14660    0.90100    2.03870    0.00000 3404.00000
 7143.00000    8.75000    0.82920    0.80210    0.97010    0.98080   49.11920   -0.00620   25.40030    0.00880   33.71890    2.99230    3.40530    2.87120    1.04220    2.03870    0.00000 3423.00000
 7142.50000    8.75000    0.82920    0.80210    0.97010    0.98080   43.58180   -0.00620   24.26610    0.00860   33.31000    2.75800    3.21930    2.42630    1.13670    2.03870    0.00000 3417.00000
 7142.00000    8.75000    0.78720    0.83180    0.97010    0.98080   44.89160   -0.00620   22.27060    0.00850   30.12050    2.17490    2.56750    2.38290    0.91270    2.03870    0.00000 3432.00000
 7141.50000    8.75000    0.77450    0.80410    0.97010    0.98080   46.20150   -0.00620   20.60640    0.00740   26.92540    2.29710    3.12470    3.15050    0.72910    2.03870    0.00000 3454.00000
 7141.00000    8.75000    0.77450    0.80410    0.97010    0.98080   41.91500   -0.00620   22.43020    0.00750   29.17650    2.79650    3.73070    3.47240    0.80540    2.03870    0.00000 3436.00000
 7140.50000    8.75000    0.78200    0.84080    0.97010    0.98080   36.08390   -0.00620   25.40310    0.00920   33.23390    2.75540    2.99760    2.87740    0.95760    2.03870    0.00000 3478.00000
 7140.00000    8.75000    0.82210    0.79680    0.97010    0.98080   34.04110   -0.00620   31.07240    0.01160   37.29610    3.18660    2.75700    4.59810    0.69300    2.03870    0.00000 3454.00000
 7139.50000    8.75000    0.82210    0.79680    0.97010    0.98080   34.10430   -0.00620   30.70270    0.01180   36.05690    2.93850    2.49460    4.83900    0.60730    2.03870    0.00000 3463.00000
 7139.00000    8.75000    0.80770    0.82050    0.97010    0.98080   41.24530   -0.00620   33.07920    0.01290   39.32430    3.05230    2.36870    4.46160    0.68410    2.03870    0.00000 3446.00000
 7138.50000    8.75000    0.82150    0.86100    0.97010    0.98080   40.01340   -0.00620   38.08630    0.01480   44.95330    3.55820    2.41050    4.56050    0.78020    2.03870    0.00000 3452.00000
 7138.00000    8.75000    0.89320    0.86100    0.97010    0.98080   43.96660   -0.00620   49.46390    0.01940   55.38420    4.50110    2.32290    6.92300    0.65020    2.03870    0.00000 3435.00000
 7137.50000    8.75000    0.89320    0.88290    0.97010    0.98080   42.06370   -0.00620   47.99450    0.01920   52.07740    4.12460    2.14640    8.24920    0.43150    2.03870    0.00000 3467.00000
 7137.00000    8.75000    0.86380    0.80820    0.97010    0.98080   45.07740   -0.00620   39.56820    0.01580   41.55720    3.43080    2.17270    6.86150    0.15660    2.03870    0.00000 3436.00000
 7136.50000    8.75000    0.78000    0.79130    0.97010    0.98080   45.64550   -0.00620   28.34000    0.01080   28.85060    2.75960    2.55680    5.51910    0.00690    2.03870    0.00000 3451.00000
 7136.00000    8.75000    0.78000    0.79130    0.97010    0.98080   44.55720   -0.00620   21.27010    0.00830   22.24790    1.96230    2.36810    3.92470    0.05680    2.03870    0.00000 3447.00000
 7135.50000    8.75000    0.75260    0.78480    0.97010    0.98080   52.81530   -0.00620   19.47010    0.00780   20.23640    1.66690    2.13540    3.33390   -0.00830    2.03870    0.00000 3448.00000
 7135.00000    8.75000    0.75650    0.76570    0.97010    0.98080   69.84330   -0.00620   17.98370    0.00680   18.21510    1.80360    2.66820    3.60720   -0.13870    2.03870    0.00000 3464.00000
 7134.50000    8.75000    0.75650    0.76570    0.97010    0.98080   79.38370   -0.00620   16.48690    0.00660   17.73330    1.43440    2.18280    2.86870   -0.00470    2.03870    0.00000 3468.00000
 7134.00000    8.75000    0.77570    0.74410    0.97010    0.98080   74.66110   -0.00620   17.93950    0.00750   19.21550    1.34900    1.79580    2.69800   -0.07400    2.03870    0.00000 3452.00000
 7133.50000    8.75000    0.78150    0.77430    0.97010    0.98080   51.73890   -0.00620   20.59000    0.00840   20.69170    1.70600    2.04250    3.41200   -0.25260    2.03870    0.00000 3453.00000
 7133.00000    8.75000    0.78150    0.77430    0.97010    0.98080   36.73090   -0.00620   23.56000    0.00980   21.75480    1.83910    1.88620    3.67810   -0.51160    2.03870    0.00000 3439.00000
 7132.50000    8.75000    0.77160    0.76970    0.97010    0.98080   22.95020   -0.00620   22.27540    0.00920   20.45980    1.74860    1.90040    3.49730   -0.47150    2.03870    0.00000 3446.00000
 7132.00000    8.75000    0.77420    0.78440    0.97010    0.98080   21.02890   -0.00620   20.10860    0.00790   19.15860    1.79810    2.26710    3.59620   -0.21780    2.03870    0.00000 3461.00000
 7131.50000    8.75000    0.77420    0.78440    0.97010    0.98080   16.72650   -0.00620   18.45220    0.00690   17.87050    1.86100    2.69020    3.72200   -0.10680    2.03870    0.00000 3435.00000
 7131.00000    8.75000    0.76750    0.76290    0.97010    0.98080   20.63260   -0.00620   17.72090    0.00680   17.34830    1.70870    2.52100    3.41740   -0.05160    2.03870    0.00000 3466.00000
 7130.50000    8.75000    0.77420    0.76560    0.97010    0.98080   18.65600   -0.00620   17.99650    0.00630   16.82650    2.06850    3.27610    4.13700   -0.14360    2.03870    0.00000 3454.00000
