~Version ---------------------------------------------------
VERS     .                                                                         2.0 : CWLS log ASCII Standard -VERSION 2.0
WRAP     .                                                                          NO : One Line per depth step
PROD     .                                                                Schlumberger : LAS Producer
PROG     .                                                      DLIS to ASCII 15C0-309 : LAS Program name and version
CREA     . 2008/02/21 06:26                          :LAS Creation date {YYYY/MM/DD hh : mm}
DLIS_CREA.     2008-Feb-20	21:27			       :DLIS Creation date and time {YYYY-MMM-DD hh : mm}
SOURCE   .                                           MAIN_AIT_TLD_MCFL_CNL_046PUP.DLIS : DLIS File Name
FILE-ID  .                                                     AIT_TLD_MCFL_CNL_046PUP : File Identification Number
~Well ------------------------------------------------------
STRT.F     10520.0 : START DEPTH
STOP.F      2062.0 : STOP DEPTH
STEP.F        -0.5 : STEP
NULL.      -999.25 : NULL VALUE
COMP.              : COMPANY
WELL.       Bakken : WELL
FLD .              : FIELD
LOC .              : LOCATION
CNTY.              : COUNTY
STAT.    N. DAKOTA : STATE
CTRY.              : COUNTRY
API .              : API NUMBER
UWI .              : UNIQUE WELL ID
DATE.  20-Feb-2008 : LOG DATE {DD-MMM-YYYY}
SRVC. Schlumberger : SERVICE COMPANY
LATI.DEG         0 : LATITUDE
LONG.DEG         0 : LONGITUDE
GDAT.              : GeoDetic Datum
SECT.              : Section
RANG.              : Range
TOWN.              : Township
~Curve Information -----------------------------------------
DEPT   .F     : DEPTH (BOREHOLE) {F10.1}
BS     .IN    : Bit Size {F13.4}
CHI1   .      : HNGS Detector 1 Chi Squared {F13.4}
CHI2   .      : HNGS Detector 2 Chi Squared {F13.4}
GCF1   .      : HNGS Detector 1 Gain Correction Factor {F13.4}
GCF2   .      : HNGS Detector 2 Gain Correction Factor {F13.4}
GR_EDTC.GAPI  : Gamma Ray {F13.4}
HBHK   .CFCF  : HNGS Borehole Potassium Concentration {F13.4}
HCGR   .GAPI  : HNGS Computed Gamma Ray {F13.4}
HFK    .CFCF  : HNGS Formation Potassium Concentration {F13.4}
HSGR   .GAPI  : HNGS Standard Gamma Ray {F13.4}
HTHO   .PPM   : HNGS Formation Thorium Concentration {F13.4}
HTPR   .      : HNGS Thorium/Potassium Ratio {F13.4}
HTUR   .      : HNGS Thorium/Uranium Ratio {F13.4}
HURA   .PPM   : HNGS Formation Uranium Concentration {F13.4}
RDF1   .      : HNGS Detector 1 Resolution Degradation Factor {F13.4}
RDF2   .      : HNGS Detector 2 Resolution Degradation Factor {F13.4}
TENS   .LBF   : Cable Tension {F13.4}
~Params ----------------------------------------------------
RUN .           ONE : RUN NUMBER
PDAT.  GROUND LEVEL : Permanent Datum
EPD .F       2111.0 : Elevation of Permanent Datum above Mean Sea Level
LMF . KELLY BUSHING : Logging Measured From (Name of Logging Elevation Reference)
APD .F         18.0 : Elevation of Depth Reference (LMF) above Permanent Datum
~Other -----------------------------------------------------
~ASCII -----------------------------------------------------
# ...
 6597.00000    8.75000    0.95930    0.91260    0.97160    0.98410   85.29190   -0.00990   76.59790    0.02020   82.71820   12.71130    6.29110   23.49290    0.54110    1.67400    1.00990 3283.00000
 6596.50000    8.75000    0.90360    0.88130    0.97160    0.98410   81.19270   -0.00990   71.66190    0.01950   81.11760   11.52090    5.89680    9.83770    1.17110    1.67400    1.00990 3294.00000
 6596.00000    8.75000    0.90360    0.88130    0.97160    0.98410   77.44250   -0.00990   68.16440    0.01990   81.15510   10.19890    5.12980    5.84680    1.74440    1.67400    1.00990 3281.00000
 6595.50000    8.75000    0.88780    0.89670    0.97160    0.98410   81.86520   -0.00990   66.41160    0.01940   82.98830    9.94050    5.13350    4.50900    2.20460    1.67400    1.00990 3298.00000
 6595.00000    8.75000    0.92120    0.89670    0.97160    0.98410   89.72430   -0.00990   63.63920    0.01950   82.70910    8.99120    4.61850    3.64040    2.46990    1.67400    1.00990 3288.00000
 6594.50000    8.75000    0.92120    0.86690    0.97160    0.98410   95.81190   -0.00990   61.67570    0.01940   84.93670    8.41300    4.34100    2.74440    3.06560    1.67400    1.00990 3293.00000
 6594.00000    8.75000    0.96460    0.91020    0.97160    0.98410   98.87990   -0.00990   55.75910    0.01790   85.71510    7.37940    4.12060    1.88940    3.90570    1.67400    1.00990 3285.00000
 6593.50000    8.75000    0.92540    0.91020    0.97160    0.98410   96.43780   -0.00990   56.55320    0.01860   86.06500    7.20550    3.86570    1.86060    3.87260    1.67400    1.00990 3278.00000
 6593.00000    8.75000    0.92540    0.93810    0.97160    0.98410   95.58950   -0.00990   56.82100    0.01860   84.68930    7.29160    3.91200    1.93820    3.76200    1.67400    1.00990 3272.00000
 6592.50000    8.75000    0.87980    0.91040    0.97160    0.98410   99.72570   -0.00990   55.43350    0.01810   83.62290    7.13740    3.93390    1.90710    3.74250    1.67400    1.00990 3283.00000
 6592.00000    8.75000    0.95300    0.91040    0.97160    0.98410   94.96370   -0.00990   55.69570    0.01850   83.46440    6.99720    3.77700    1.86280    3.75630    1.67400    1.00990 3265.00000
 6591.50000    8.75000    0.95300    0.88300    0.97160    0.98410   90.37920   -0.00990   55.31630    0.01860   82.44160    6.84330    3.68280    1.86870    3.66200    1.67400    1.00990 3291.00000
 6591.00000    8.75000    0.88130    0.92650    0.97160    0.98410   79.41130   -0.00990   53.63640    0.01830   80.68580    6.49060    3.55360    1.86330    3.48340    1.67400    1.00990 3288.00000
 6590.50000    8.75000    0.92970    0.92650    0.97160    0.98410   79.26310   -0.00990   56.97250    0.01870   83.53030    7.30250    3.90430    2.05180    3.55910    1.67400    1.00990 3288.00000
 6590.00000    8.75000    0.92970    0.92070    0.97160    0.98410   79.54870   -0.00990   54.70390    0.01860   80.35750    6.62310    3.55650    1.95450    3.38860    1.67400    1.00990 3294.00000
 6589.50000    8.75000    0.92880    0.87600    0.97160    0.98410   75.93810   -0.00990   52.45190    0.01760   76.05090    6.50410    3.69680    2.09830    3.09970    1.67400    1.00990 3283.00000
 6589.00000    8.75000    0.89430    0.87600    0.97160    0.98410   85.48000   -0.00990   47.39380    0.01660   68.41290    5.47200    3.29850    2.02500    2.70220    1.67400    1.00990 3291.00000
 6588.50000    8.75000    0.89430    0.86880    0.97160    0.98410   88.41990   -0.00990   44.58590    0.01630   63.65550    4.76210    2.92770    1.95240    2.43910    1.67400    1.00990 3290.00000
 6588.00000    8.75000    0.90960    0.87400    0.97160    0.98410   93.96250   -0.00990   43.70060    0.01510   60.91470    5.14860    3.40480    2.27620    2.26190    1.67400    1.00990 3279.00000
 6587.50000    8.75000    0.85940    0.87400    0.97160    0.98410   90.46310   -0.00990   42.83890    0.01490   58.47780    5.03040    3.38700    2.49530    2.01590    1.67400    1.00990 3291.00000
 6587.00000    8.75000    0.85940    0.84190    0.97160    0.98410   80.68840   -0.00990   44.12790    0.01510   58.67330    5.27650    3.48580    2.67560    1.97210    1.67400    1.00990 3272.00000
 6586.50000    8.75000    0.85260    0.89380    0.97160    0.98410   78.59060   -0.00990   44.39460    0.01440   59.36860    5.76510    3.99010    2.88040    2.00150    1.67400    1.00990 3281.00000
 6586.00000    8.75000    0.85260    0.89380    0.97160    0.98410   68.11190   -0.00990   46.65310    0.01550   62.33290    5.86390    3.77930    2.70350    2.16900    1.67400    1.00990 3281.00000
 6585.50000    8.75000    0.89970    0.91380    0.97160    0.98410   67.45700   -0.00990   46.46750    0.01610   62.31690    5.47100    3.40120    2.42220    2.25870    1.67400    1.00990 3300.00000
 6585.00000    8.75000    0.89170    0.85470    0.97160    0.98410   60.90770   -0.00990   46.87890    0.01600   62.33810    5.65910    3.53930    2.72130    2.07950    1.67400    1.00990 3275.00000
 6584.50000    8.75000    0.89170    0.85470    0.97160    0.98410   61.03000   -0.00990   47.02540    0.01600   62.13120    5.72250    3.58540    2.80620    2.03930    1.67400    1.00990 3281.00000
 6584.00000    8.75000    0.88920    0.88860    0.97160    0.98410   64.30470   -0.00990   47.46150    0.01670   63.85500    5.41660    3.23930    2.42490    2.23370    1.67400    1.00990 3287.00000
 6583.50000    8.75000    0.84830    0.86710    0.97160    0.98410   68.23420   -0.00990   53.06200    0.01710   65.57190    7.00940    4.10740    4.01920    1.74400    1.67400    1.00990 3294.00000
 6583.00000    8.75000    0.84830    0.86710    0.97160    0.98410   72.04140   -0.00990   47.11570    0.01460   58.96430    6.55730    4.49650    4.33910    1.51120    1.67400    1.00990 3296.00000
 6582.50000    8.75000    0.85660    0.86020    0.97160    0.98410   64.83730   -0.00990   39.69530    0.01240   51.76850    5.46350    4.40940    3.85650    1.41670    1.67400    1.00990 3292.00000
 6582.00000    8.75000    0.80910    0.85920    0.97160    0.98410   70.25810   -0.00990   32.54110    0.01050   44.65610    4.25250    4.03300    3.02530    1.40560    1.67400    1.00990 3296.00000
 6581.50000    8.75000    0.80910    0.85920    0.97160    0.98410   68.81180   -0.00990   32.85780    0.01080   46.93440    4.19970    3.88580    2.47360    1.69780    1.67400    1.00990 3293.00000
 6581.00000    8.75000    0.88460    0.83660    0.97160    0.98410   74.17750   -0.00990   37.82840    0.01300   55.14160    4.52500    3.48820    2.07560    2.18010    1.67400    1.00990 3260.00000
 6580.50000    8.75000    0.85780    0.86820    0.97160    0.98410   60.89750   -0.00990   44.91050    0.01460   63.32680    5.86800    4.03190    2.65300    2.21190    1.67400    1.00990 3260.00000
 6580.00000    8.75000    0.85780    0.86820    0.97160    0.98410   53.17490   -0.00990   51.41590    0.01600   71.37990    7.08660    4.42000    3.10670    2.28100    1.67400    1.00990 3266.00000
 6579.50000    8.75000    0.87220    0.92320    0.97160    0.98410   48.46420   -0.00990   50.36060    0.01630   72.25420    6.61670    4.06970    2.75400    2.40260    1.67400    1.00990 3250.00000
 6579.00000    8.75000    0.84680    0.89960    0.97160    0.98410   45.84450   -0.00990   51.98710    0.01600   73.28490    7.30980    4.57860    3.03750    2.40650    1.67400    1.00990 3273.00000
 6578.50000    8.75000    0.84680    0.89960    0.97160    0.98410   43.22480   -0.00990   50.89030    0.01520   73.79460    7.39390    4.85760    2.82510    2.61720    1.67400    1.00990 3269.00000
 6578.00000    8.75000    0.85470    0.88990    0.97160    0.98410   44.53470   -0.00990   45.53350    0.01450   72.34020    6.11630    4.22620    1.98900    3.07500    1.67400    1.00990 3273.00000
 6577.50000    8.75000    0.83700    0.88930    0.97160    0.98410   56.48110   -0.00990   48.75590    0.01460   70.79270    7.08670    4.86110    2.67110    2.65310    1.67400    1.00990 3273.00000
 6577.00000    8.75000    0.83700    0.88930    0.97160    0.98410   71.54430   -0.00990   45.20590    0.01390   65.02730    6.35120    4.57200    2.58630    2.45570    1.67400    1.00990 3260.00000
