~Version ---------------------------------------------------
VERS     .                                                                         2.0 : CWLS log ASCII Standard -VERSION 2.0
WRAP     .                                                                          NO : One Line per depth step
PROD     .                                                                Schlumberger : LAS Producer
PROG     .                                                      DLIS to ASCII 15C0-309 : LAS Program name and version
CREA     . 2008/02/21 06:26                          :LAS Creation date {YYYY/MM/DD hh : mm}
DLIS_CREA.     2008-Feb-20	21:27			       :DLIS Creation date and time {YYYY-MMM-DD hh : mm}
SOURCE   .                                           MAIN_AIT_TLD_MCFL_CNL_046PUP.DLIS : DLIS File Name
FILE-ID  .                                                     AIT_TLD_MCFL_CNL_046PUP : File Identification Number
~Well ------------------------------------------------------
STRT.F     10520.0 : START DEPTH
STOP.F      2062.0 : STOP DEPTH
STEP.F        -0.5 : STEP
NULL.      -999.25 : NULL VALUE
COMP.              : COMPANY
WELL.       Bakken : WELL
FLD .              : FIELD
LOC .              : LOCATION
CNTY.              : COUNTY
STAT.    N. DAKOTA : STATE
CTRY.              : COUNTRY
API .              : API NUMBER
UWI .              : UNIQUE WELL ID
DATE.  20-Feb-2008 : LOG DATE {DD-MMM-YYYY}
SRVC. Schlumberger : SERVICE COMPANY
LATI.DEG         0 : LATITUDE
LONG.DEG         0 : LONGITUDE
GDAT.              : GeoDetic Datum
SECT.              : Section
RANG.              : Range
TOWN.              : Township
~Curve Information -----------------------------------------
DEPT   .F     : DEPTH (BOREHOLE) {F10.1}
BS     .IN    : Bit Size {F13.4}
CHI1   .      : HNGS Detector 1 Chi Squared {F13.4}
CHI2   .      : HNGS Detector 2 Chi Squared {F13.4}
GCF1   .      : HNGS Detector 1 Gain Correction Factor {F13.4}
GCF2   .      : HNGS Detector 2 Gain Correction Factor {F13.4}
GR_EDTC.GAPI  : Gamma Ray {F13.4}
HBHK   .CFCF  : HNGS Borehole Potassium Concentration {F13.4}
HCGR   .GAPI  : HNGS Computed Gamma Ray {F13.4}
HFK    .CFCF  : HNGS Formation Potassium Concentration {F13.4}
HSGR   .GAPI  : HNGS Standard Gamma Ray {F13.4}
HTHO   .PPM   : HNGS Formation Thorium Concentration {F13.4}
HTPR   .      : HNGS Thorium/Potassium Ratio {F13.4}
HTUR   .      : HNGS Thorium/Uranium Ratio {F13.4}
HURA   .PPM   : HNGS Formation Uranium Concentration {F13.4}
RDF1   .      : HNGS Detector 1 Resolution Degradation Factor {F13.4}
RDF2   .      : HNGS Detector 2 Resolution Degradation Factor {F13.4}
TENS   .LBF   : Cable Tension {F13.4}
~Params ----------------------------------------------------
RUN .           ONE : RUN NUMBER
PDAT.  GROUND LEVEL : Permanent Datum
EPD .F       2111.0 : Elevation of Permanent Datum above Mean Sea Level
LMF . KELLY BUSHING : Logging Measured From (Name of Logging Elevation Reference)
APD .F         18.0 : Elevation of Depth Reference (LMF) above Permanent Datum
~Other -----------------------------------------------------
~ASCII -----------------------------------------------------
# ...
 8852.00000    8.75000    0.77100    0.79600    0.96640    0.98800   15.21680   -0.00690    3.72610    0.00100   11.92010    0.62840    6.28440    0.60670    1.03580    4.94930    3.52800 3858.00000
 8851.50000    8.75000    0.81800    0.83180    0.96640    0.98800   14.39700   -0.00690    4.80370    0.00120   13.03500    0.85930    7.44220    0.84370    1.01860    4.94930    3.52800 3842.00000
 8851.00000    8.75000    0.85960    0.82260    0.96640    0.98800   12.05130   -0.00690    4.64150    0.00110   12.94050    0.85580    7.98170    0.80110    1.06840    4.94930    3.52800 3902.00000
 8850.50000    8.75000    0.77870    0.80100    0.96640    0.98800   10.63750   -0.00690    4.71880    0.00130   12.12450    0.73440    5.55590    0.75860    0.96800    4.94930    3.52800 3880.00000
 8850.00000    8.75000    0.81400    0.84570    0.96640    0.98800   10.59760   -0.00690    4.17460    0.00120   11.45300    0.62140    5.10320    0.66430    0.93550    4.94930    3.52800 3896.00000
 8849.50000    8.75000    0.85510    0.78110    0.96640    0.98800   11.43060   -0.00690    4.76340    0.00140   12.27760    0.67490    4.66140    0.67710    0.99680    4.94930    3.52800 3884.00000
 8849.00000    8.75000    0.79180    0.81570    0.96640    0.98800   12.41910   -0.00690    5.25360    0.00150   12.46680    0.79540    5.26810    0.79510    1.00040    4.94930    3.52800 3856.00000
 8848.50000    8.75000    0.84920    0.80330    0.96640    0.98800   12.57230   -0.00690    4.36140    0.00130   12.06200    0.65690    5.21710    0.60950    1.07760    4.94930    3.52800 3822.00000
 8848.00000    8.75000    0.80330    0.81110    0.96640    0.98800   13.23130   -0.00690    4.47760    0.00130   11.54280    0.67360    5.20470    0.70530    0.95510    4.94930    3.52800 3848.00000
 8847.50000    8.75000    0.76990    0.79680    0.96640    0.98800   14.43670   -0.00690    3.95630    0.00110   10.90250    0.59940    5.27570    0.65980    0.90840    4.94930    3.52800 3927.00000
 8847.00000    8.75000    0.78670    0.84770    0.96640    0.98800   16.28210   -0.00690    2.86410    0.00090   10.15230    0.39530    3.95280    0.41540    0.95150    4.94930    3.52800 3862.00000
 8846.50000    8.75000    0.85370    0.76980    0.96640    0.98800   16.28210   -0.00690    2.69990    0.00090   10.47940    0.36520    3.65180    0.36080    1.01220    4.94930    3.52800 3849.00000
 8846.00000    8.75000    0.78970    0.82450    0.96640    0.98800   16.38860   -0.00690    2.34520    0.00080   11.02650    0.26780    2.67810    0.23330    1.14770    4.94930    3.52800 3840.00000
 8845.50000    8.75000    0.80170    0.79590    0.96640    0.98800   16.57150   -0.00690    3.63730    0.00110   11.44850    0.54420    5.14880    0.55050    0.98860    4.94930    3.52800 3849.00000
 8845.00000    8.75000    0.80090    0.76390    0.96640    0.98800   14.43560   -0.00690    2.63120    0.00070   11.13320    0.44660    4.46640    0.40770    1.09540    4.94930    3.52800 3876.00000
 8844.50000    8.75000    0.76700    0.83570    0.96640    0.98800   12.95980   -0.00690    2.83640    0.00080   10.84600    0.45600    4.55990    0.42160    1.08170    4.94930    3.52800 3873.00000
 8844.00000    8.75000    0.81810    0.81380    0.96640    0.98800   10.81520   -0.00690    3.37780    0.00070   10.03600    0.67640    6.76380    0.78680    0.85970    4.94930    3.52800 3868.00000
 8843.50000    8.75000    0.80310    0.82170    0.96640    0.98800   13.11130   -0.00690    3.99310    0.00070    9.11550    0.85510    8.55130    1.33680    0.63970    4.94930    3.52800 3884.00000
 8843.00000    8.75000    0.74720    0.79740    0.96640    0.98800   12.12740   -0.00690    4.54070    0.00090    8.89750    0.90580    9.05850    1.69340    0.53490    4.94930    3.52800 3838.00000
 8842.50000    8.75000    0.83870    0.82260    0.96640    0.98800   11.96060   -0.00690    4.53240    0.00100    9.66330    0.88680    8.86800    1.42360    0.62290    4.94930    3.52800 3895.00000
 8842.00000    8.75000    0.82880    0.84150    0.96640    0.98800   10.65260   -0.00690    5.33870    0.00110   11.25960    1.06480    9.70680    1.39230    0.76480    4.94930    3.52800 3884.00000
 8841.50000    8.75000    0.83600    0.78440    0.96640    0.98800   11.46970   -0.00690    5.81100    0.00130   11.93230    1.08590    8.23440    1.42650    0.76120    4.94930    3.52800 3921.00000
 8841.00000    8.75000    0.79700    0.81820    0.96640    0.98800   12.61960   -0.00690    6.21160    0.00160   11.62200    1.06660    6.79220    1.54270    0.69140    4.94930    3.52800 3892.00000
 8840.50000    8.75000    0.81130    0.82310    0.96640    0.98800   12.12520   -0.00690    6.80130    0.00180   12.10860    1.09400    5.92680    1.68470    0.64930    4.94930    3.52800 3932.00000
 8840.00000    8.75000    0.83190    0.79320    0.96640    0.98800   11.79750   -0.00690    6.00850    0.00180   13.03890    0.88730    5.02480    1.01410    0.87490    4.94930    3.52800 3916.00000
 8839.50000    8.75000    0.78770    0.88170    0.96640    0.98800   10.81740   -0.00690    6.93400    0.00220   14.75480    0.95190    4.40520    1.00450    0.94760    4.94930    3.52800 3936.00000
 8839.00000    8.75000    0.85100    0.82380    0.96640    0.98800   13.43910   -0.00690    6.27430    0.00200   14.12360    0.82660    4.10320    0.92670    0.89200    4.94930    3.52800 3909.00000
 8838.50000    8.75000    0.86160    0.84400    0.96640    0.98800   15.24150   -0.00690    5.15320    0.00190   12.81060    0.55490    2.97340    0.62340    0.89010    4.94930    3.52800 3913.00000
 8838.00000    8.75000    0.78330    0.79390    0.96640    0.98800   13.92970   -0.00690    3.34460    0.00160   11.27360    0.13750    0.86400    0.14980    0.91800    4.94930    3.52800 3915.00000
 8837.50000    8.75000    0.80240    0.78620    0.96640    0.98800   13.27030   -0.00690    3.10160    0.00140   11.04090    0.19540    1.43590    0.21330    0.91570    4.94930    3.52800 3907.00000
 8837.00000    8.75000    0.83390    0.79050    0.96640    0.98800   12.45440   -0.00690    3.64850    0.00160   13.98440    0.24720    1.57370    0.20300    1.21770    4.94930    3.52800 3902.00000
 8836.50000    8.75000    0.84030    0.83670    0.96640    0.98800   15.72930   -0.00690    3.47590    0.00150   14.39710    0.21260    1.38470    0.16900    1.25810    4.94930    3.52800 3883.00000
 8836.00000    8.75000    0.76580    0.82940    0.96640    0.98800   16.42310   -0.00690    3.98030    0.00180   14.18530    0.19650    1.06870    0.16380    1.19950    4.94930    3.52800 3886.00000
 8835.50000    8.75000    0.79390    0.84460    0.96640    0.98800   17.89000   -0.00690    2.78630    0.00110    9.99370    0.27440    2.60610    0.33050    0.83030    4.94930    3.52800 3893.00000
 8835.00000    8.75000    0.78870    0.74930    0.96640    0.98800   16.91070   -0.00690    2.26390    0.00080    8.35820    0.26080    2.60830    0.36810    0.70860    4.94930    3.52800 3902.00000
 8834.50000    8.75000    0.76740    0.78680    0.96640    0.98800   15.07700   -0.00690    1.84730    0.00060    6.52630    0.21440    2.14430    0.38080    0.56310    4.94930    3.52800 3880.00000
 8834.00000    8.75000    0.78950    0.79010    0.96640    0.98800   14.91330   -0.00690    2.43980    0.00080    7.79370    0.33820    3.38220    0.51280    0.65950    4.94930    3.52800 3896.00000
 8833.50000    8.75000    0.80660    0.80100    0.96640    0.98800   14.97880   -0.00690    2.91110    0.00090    7.78370    0.42500    4.25000    0.68160    0.62350    4.94930    3.52800 3891.00000
 8833.00000    8.75000    0.76880    0.78630    0.96640    0.98800   16.78250   -0.00690    3.16740    0.00100    8.33630    0.45240    4.52440    0.67920    0.66610    4.94930    3.52800 3873.00000
 8832.50000    8.75000    0.79140    0.77660    0.96640    0.98800   16.79110   -0.00690    3.00430    0.00090    7.24840    0.41720    4.17220    0.73720    0.56600    4.94930    3.52800 3884.00000
 8832.00000    8.75000    0.80760    0.75470    0.96640    0.98800   15.38420   -0.00690    2.68560    0.00100    7.11340    0.28350    2.83460    0.48090    0.58950    4.94930    3.52800 3887.00000
