~Version ---------------------------------------------------
VERS     .                                                                         2.0 : CWLS log ASCII Standard -VERSION 2.0
WRAP     .                                                                          NO : One Line per depth step
PROD     .                                                                Schlumberger : LAS Producer
PROG     .                                                      DLIS to ASCII 15C0-309 : LAS Program name and version
CREA     . 2008/02/21 06:26                          :LAS Creation date {YYYY/MM/DD hh : mm}
DLIS_CREA.     2008-Feb-20	21:27			       :DLIS Creation date and time {YYYY-MMM-DD hh : mm}
SOURCE   .                                           MAIN_AIT_TLD_MCFL_CNL_046PUP.DLIS : DLIS File Name
FILE-ID  .                                                     AIT_TLD_MCFL_CNL_046PUP : File Identification Number
~Well ------------------------------------------------------
STRT.F     10520.0 : START DEPTH
STOP.F      2062.0 : STOP DEPTH
STEP.F        -0.5 : STEP
NULL.      -999.25 : NULL VALUE
COMP.              : COMPANY
WELL.       Bakken : WELL
FLD .              : FIELD
LOC .              : LOCATION
CNTY.              : COUNTY
STAT.    N. DAKOTA : STATE
CTRY.              : COUNTRY
API .              : API NUMBER
UWI .              : UNIQUE WELL ID
DATE.  20-Feb-2008 : LOG DATE {DD-MMM-YYYY}
SRVC. Schlumberger : SERVICE COMPANY
LATI.DEG         0 : LATITUDE
LONG.DEG         0 : LONGITUDE
GDAT.              : GeoDetic Datum
SECT.              : Section
RANG.              : Range
TOWN.              : Township
~Curve Information -----------------------------------------
DEPT   .F     : DEPTH (BOREHOLE) {F10.1}
BS     .IN    : Bit Size {F13.4}
CHI1   .      : HNGS Detector 1 Chi Squared {F13.4}
CHI2   .      : HNGS Detector 2 Chi Squared {F13.4}
GCF1   .      : HNGS Detector 1 Gain Correction Factor {F13.4}
GCF2   .      : HNGS Detector 2 Gain Correction Factor {F13.4}
GR_EDTC.GAPI  : Gamma Ray {F13.4}
HBHK   .CFCF  : HNGS Borehole Potassium Concentration {F13.4}
HCGR   .GAPI  : HNGS Computed Gamma Ray {F13.4}
HFK    .CFCF  : HNGS Formation Potassium Concentration {F13.4}
HSGR   .GAPI  : HNGS Standard Gamma Ray {F13.4}
HTHO   .PPM   : HNGS Formation Thorium Concentration {F13.4}
HTPR   .      : HNGS Thorium/Potassium Ratio {F13.4}
HTUR   .      : HNGS Thorium/Uranium Ratio {F13.4}
HURA   .PPM   : HNGS Formation Uranium Concentration {F13.4}
RDF1   .      : HNGS Detector 1 Resolution Degradation Factor {F13.4}
RDF2   .      : HNGS Detector 2 Resolution Degradation Factor {F13.4}
TENS   .LBF   : Cable Tension {F13.4}
~Params ----------------------------------------------------
RUN .           ONE : RUN NUMBER
PDAT.  GROUND LEVEL : Permanent Datum
EPD .F       2111.0 : Elevation of Permanent Datum above Mean Sea Level
LMF . KELLY BUSHING : Logging Measured From (Name of Logging Elevation Reference)
APD .F         18.0 : Elevation of Depth Reference (LMF) above Permanent Datum
~Other -----------------------------------------------------
~ASCII -----------------------------------------------------
# ...
 4895.50000    8.75000    0.92340    0.96800    0.97300    0.98380  113.30140   -0.00800   75.16460    0.01820   98.03070   13.40960    7.35970    4.52410    2.96400    2.16890    1.38880 2658.00000
 4895.00000    8.75000    0.91400    0.93220    0.97300    0.98380  115.92110   -0.00800   70.80370    0.01790   95.41880   12.20650    6.82330    3.92770    3.10780    2.16890    1.38880 2653.00000
 4894.50000    8.75000    0.95230    0.90070    0.97300    0.98380  113.30140   -0.00800   69.24390    0.01740   92.87210   12.01530    6.92020    4.25400    2.82440    2.16890    1.38880 2657.00000
 4894.00000    8.75000    0.95230    0.90070    0.97300    0.98380   96.92830   -0.00800   71.39810    0.01720   95.10910   12.79490    7.43460    4.53790    2.81950    2.16890    1.38880 2676.00000
 4893.50000    8.75000    0.94810    0.93810    0.97300    0.98380   95.29350   -0.00800   68.67960    0.01680   95.61750   12.18120    7.26330    3.58350    3.39920    2.16890    1.38880 2674.00000
 4893.00000    8.75000    0.92830    0.93810    0.97300    0.98380   96.60330   -0.00800   72.30380    0.01670   95.95960   13.39500    8.03030    4.21750    3.17610    2.16890    1.38880 2678.00000
 4892.50000    8.75000    0.92830    0.90990    0.97300    0.98380  103.15260   -0.00800   75.24710    0.01640   95.34800   14.48890    8.82230    4.96390    2.91880    2.16890    1.38880 2672.00000
 4892.00000    8.75000    0.90120    0.95810    0.97300    0.98380  104.13250   -0.00800   73.17580    0.01630   93.30820   13.90990    8.54460    4.76370    2.92000    2.16890    1.38880 2670.00000
 4891.50000    8.75000    0.92670    0.95810    0.97300    0.98380  106.97310   -0.00800   73.51830    0.01590   91.55870   14.25950    8.98530    5.43030    2.62590    2.16890    1.38880 2669.00000
 4891.00000    8.75000    0.92670    0.92840    0.97300    0.98380  114.17720   -0.00800   75.46140    0.01580   91.92740   14.90350    9.41260    6.19320    2.40640    2.16890    1.38880 2657.00000
 4890.50000    8.75000    1.00310    1.04060    0.97300    0.98380  105.57530   -0.00800   79.30550    0.01740   93.99870   15.24100    8.77890    7.04130    2.16450    2.16890    1.38880 2662.00000
 4890.00000    8.75000    1.00310    1.04060    0.97300    0.98380  100.11500   -0.00800   83.85430    0.01750   95.05110   16.62150    9.50210    8.48800    1.95820    2.16890    1.38880 2656.00000
 4889.50000    8.75000    0.90220    0.91240    0.97300    0.98380   95.73960   -0.00800   93.95610    0.01850  102.26860   19.27730   10.42920   10.02240    1.92340    2.16890    1.38880 2639.00000
 4889.00000    8.75000    0.94720    1.07640    0.97300    0.98380   99.75710   -0.00800  101.91430    0.02070  109.50540   20.55220    9.94690   10.31190    1.99310    2.16890    1.38880 2637.00000
 4888.50000    8.75000    0.94720    1.07640    0.97300    0.98380   99.10220   -0.00800  102.16650    0.02160  108.51420   20.10840    9.32780   11.28690    1.78160    2.16890    1.38880 2640.00000
 4888.00000    8.75000    0.93500    0.93050    0.97300    0.98380  108.71690   -0.00800  100.61280    0.02140  105.10000   19.71280    9.21910   14.17120    1.39100    2.16890    1.38880 2631.00000
 4887.50000    8.75000    1.03140    1.08410    0.97300    0.98380  110.68170   -0.00800   93.22110    0.02080  101.54370   17.69090    8.50880    9.96650    1.77500    2.16890    1.38880 2653.00000
 4887.00000    8.75000    1.03140    1.08410    0.97300    0.98380  115.26610   -0.00800   96.23690    0.02210  104.49470   17.91860    8.12570   11.81300    1.51690    2.16890    1.38880 2656.00000
 4886.50000    8.75000    0.93150    0.98110    0.97300    0.98380  106.91470   -0.00800   93.58560    0.02080   97.19110   17.80310    8.56020   21.20970    0.83940    2.16890    1.38880 2650.00000
 4886.00000    8.75000    0.92830    0.91490    0.97300    0.98380  108.22450   -0.00800   85.46260    0.01890   89.81400   16.29840    8.61300   16.95180    0.96150    2.16890    1.38880 2667.00000
 4885.50000    8.75000    0.92830    0.91490    0.97300    0.98380  102.98510   -0.00800   85.39620    0.01860   88.71100   16.44810    8.82870   19.16720    0.85810    2.16890    1.38880 2649.00000
 4885.00000    8.75000    1.01530    0.96960    0.97300    0.98380   98.89310   -0.00800   84.60740    0.01730   90.68190   16.95040    9.77520   13.06240    1.29760    2.16890    1.38880 2659.00000
 4884.50000    8.75000    0.89870    0.94720    0.97300    0.98380   98.23820   -0.00800   86.55020    0.01720   92.64370   17.65150   10.25960   13.74050    1.28460    2.16890    1.38880 2655.00000
 4884.00000    8.75000    0.89870    0.94720    0.97300    0.98380  102.37290   -0.00800   82.91130    0.01660   92.81630   16.81230   10.09930   10.06130    1.67100    2.16890    1.38880 2649.00000
 4883.50000    8.75000    0.92260    0.87880    0.97300    0.98380  101.53080   -0.00800   81.05950    0.01580   96.52700   16.72960   10.60560    6.96580    2.40170    2.16890    1.38880 2663.00000
 4883.00000    8.75000    1.00920    0.87880    0.97300    0.98380  110.73910   -0.00800   80.79440    0.01610   98.99070   16.43950   10.19490    6.17870    2.66070    2.16890    1.38880 2650.00000
 4882.50000    8.75000    1.00920    0.96910    0.97300    0.98380  109.22410   -0.00800   82.30040    0.01690  103.80930   16.49170    9.78130    5.50570    2.99540    2.16890    1.38880 2657.00000
 4882.00000    8.75000    0.96710    0.97360    0.97300    0.98380  111.37600   -0.00800   83.62040    0.01620  103.33440   17.29060   10.66120    6.24960    2.76670    2.16890    1.38880 2657.00000
 4881.50000    8.75000    0.94380    0.97360    0.97300    0.98380   96.92830   -0.00800   85.52710    0.01620  104.42040   17.92240   11.07520    6.55250    2.73520    2.16890    1.38880 2651.00000
 4881.00000    8.75000    0.94380    0.96520    0.97300    0.98380   94.49010   -0.00800   80.65030    0.01490   97.34790   17.10790   11.47730    6.85610    2.49530    2.16890    1.38880 2651.00000
 4880.50000    8.75000    0.87660    0.92280    0.97300    0.98380   97.10980   -0.00800   79.14940    0.01440   93.76740   16.94000   11.78730    7.41130    2.28570    2.16890    1.38880 2671.00000
 4880.00000    8.75000    0.87660    0.92280    0.97300    0.98380  101.69430   -0.00800   78.73520    0.01410   92.60180   16.96830   12.03680    7.33310    2.31390    2.16890    1.38880 2650.00000
 4879.50000    8.75000    0.95520    0.92360    0.97300    0.98380  122.80750   -0.00800   87.87020    0.01580  102.49550   18.91810   11.99960    7.33330    2.57970    2.16890    1.38880 2662.00000
 4879.00000    8.75000    0.99030    0.97350    0.97300    0.98380  124.34230   -0.00800   91.04460    0.01800  112.19650   18.65050   10.38430    5.52140    3.37790    2.16890    1.38880 2649.00000
 4878.50000    8.75000    0.99030    0.97350    0.97300    0.98380  124.99720   -0.00800   91.44990    0.01880  111.01040   18.27660    9.71100    5.91570    3.08950    2.16890    1.38880 2633.00000
 4878.00000    8.75000    1.06410    0.97960    0.97300    0.98380  105.01230   -0.00800   90.37270    0.01910  104.74700   17.75570    9.28610    7.52950    2.35810    2.16890    1.38880 2638.00000
 4877.50000    8.75000    0.95460    0.96190    0.97300    0.98380   94.30860   -0.00800   86.20590    0.01740   98.55150   17.42900   10.01740    7.94350    2.19410    2.16890    1.38880 2630.00000
 4877.00000    8.75000    0.95460    0.96190    0.97300    0.98380   94.96360   -0.00800   87.01770    0.01750  101.17150   17.60290   10.03260    6.96540    2.52720    2.16890    1.38880 2647.00000
 4876.50000    8.75000    0.95860    0.91040    0.97300    0.98380   97.58330   -0.00800   83.71420    0.01790  100.09930   16.34770    9.14200    6.00320    2.72310    2.16890    1.38880 2645.00000
 4876.00000    8.75000    0.96480    0.95720    0.97300    0.98380  120.14650   -0.00800   77.39450    0.01740   98.87440   14.61260    8.40410    4.45150    3.28260    2.16890    1.38880 2633.00000
 4875.50000    8.75000    0.96480    0.95720    0.97300    0.98380  122.76620   -0.00800   72.09760    0.01640   95.21610   13.50170    8.23970    3.82540    3.52940    2.16890    1.38880 2656.00000
