~Version ---------------------------------------------------
VERS     .                                                                         2.0 : CWLS log ASCII Standard -VERSION 2.0
WRAP     .                                                                          NO : One Line per depth step
PROD     .                                                                Schlumberger : LAS Producer
PROG     .                                                      DLIS to ASCII 15C0-309 : LAS Program name and version
CREA     . 2008/02/21 06:26                          :LAS Creation date {YYYY/MM/DD hh : mm}
DLIS_CREA.     2008-Feb-20	21:27			       :DLIS Creation date and time {YYYY-MMM-DD hh : mm}
SOURCE   .                                           MAIN_AIT_TLD_MCFL_CNL_046PUP.DLIS : DLIS File Name
FILE-ID  .                                                     AIT_TLD_MCFL_CNL_046PUP : File Identification Number
~Well ------------------------------------------------------
STRT.F     10520.0 : START DEPTH
STOP.F      2062.0 : STOP DEPTH
STEP.F        -0.5 : STEP
NULL.      -999.25 : NULL VALUE
COMP.              : COMPANY
WELL.       Bakken : WELL
FLD .              : FIELD
LOC .              : LOCATION
CNTY.              : COUNTY
STAT.    N. DAKOTA : STATE
CTRY.              : COUNTRY
API .              : API NUMBER
UWI .              : UNIQUE WELL ID
DATE.  20-Feb-2008 : LOG DATE {DD-MMM-YYYY}
SRVC. Schlumberger : SERVICE COMPANY
LATI.DEG         0 : LATITUDE
LONG.DEG         0 : LONGITUDE
GDAT.              : GeoDetic Datum
SECT.              : Section
RANG.              : Range
TOWN.              : Township
~Curve Information -----------------------------------------
DEPT   .F     : DEPTH (BOREHOLE) {F10.1}
BS     .IN    : Bit Size {F13.4}
CHI1   .      : HNGS Detector 1 Chi Squared {F13.4}
CHI2   .      : HNGS Detector 2 Chi Squared {F13.4}
GCF1   .      : HNGS Detector 1 Gain Correction Factor {F13.4}
GCF2   .      : HNGS Detector 2 Gain Correction Factor {F13.4}
GR_EDTC.GAPI  : Gamma Ray {F13.4}
HBHK   .CFCF  : HNGS Borehole Potassium Concentration {F13.4}
HCGR   .GAPI  : HNGS Computed Gamma Ray {F13.4}
HFK    .CFCF  : HNGS Formation Potassium Concentration {F13.4}
HSGR   .GAPI  : HNGS Standard Gamma Ray {F13.4}
HTHO   .PPM   : HNGS Formation Thorium Concentration {F13.4}
HTPR   .      : HNGS Thorium/Potassium Ratio {F13.4}
HTUR   .      : HNGS Thorium/Uranium Ratio {F13.4}
HURA   .PPM   : HNGS Formation Uranium Concentration {F13.4}
RDF1   .      : HNGS Detector 1 Resolution Degradation Factor {F13.4}
RDF2   .      : HNGS Detector 2 Resolution Degradation Factor {F13.4}
TENS   .LBF   : Cable Tension {F13.4}
~Params ----------------------------------------------------
RUN .           ONE : RUN NUMBER
PDAT.  GROUND LEVEL : Permanent Datum
EPD .F       2111.0 : Elevation of Permanent Datum above Mean Sea Level
LMF . KELLY BUSHING : Logging Measured From (Name of Logging Elevation Reference)
APD .F         18.0 : Elevation of Depth Reference (LMF) above Permanent Datum
~Other -----------------------------------------------------
~ASCII -----------------------------------------------------
# ...
 9979.50000    8.75000    0.97830    1.06480    0.97090    0.98140   19.47050   -0.00090   23.07340    0.00870   27.53770    2.27470    2.60240    3.32180    0.68480    1.34550    0.93820 4158.00000
 9979.00000    8.75000    1.15120    1.03530    0.97090    0.98140   18.24230   -0.00090   25.69260    0.00980   30.80200    2.49740    2.55010    3.24680    0.76920    1.34550    0.93820 4172.00000
 9978.50000    8.75000    1.03850    1.11460    0.97090    0.98140   18.35470   -0.00090   25.76360    0.00990   31.65230    2.48470    2.52160    2.82860    0.87840    1.34550    0.93820 4179.00000
 9978.00000    8.75000    1.20410    1.08290    0.97090    0.98140   22.69950   -0.00090   24.53390    0.00940   30.90200    2.32940    2.46590    2.47160    0.94250    1.34550    0.93820 4152.00000
 9977.50000    8.75000    1.07560    1.01420    0.97090    0.98140   22.48220   -0.00090   25.22750    0.00930   30.17480    2.61870    2.80620    3.54670    0.73830    1.34550    0.93820 4140.00000
 9977.00000    8.75000    0.99160    1.10070    0.97090    0.98140   24.67740   -0.00090   24.65860    0.00890   30.02760    2.70450    3.04770    3.68060    0.73480    1.34550    0.93820 4161.00000
 9976.50000    8.75000    1.03960    1.00570    0.97090    0.98140   26.50490   -0.00090   25.66130    0.00900   30.51420    2.94200    3.26280    4.38790    0.67050    1.34550    0.93820 4154.00000
 9976.00000    8.75000    1.03550    1.01940    0.97090    0.98140   29.02170   -0.00090   27.69460    0.01000   33.48190    3.04190    3.05440    3.93590    0.77290    1.34550    0.93820 4180.00000
 9975.50000    8.75000    1.16990    1.23670    0.97090    0.98140   34.23120   -0.00090   27.04740    0.00990   33.59540    2.87010    2.89960    3.36490    0.85290    1.34550    0.93820 4165.00000
 9975.00000    8.75000    1.15590    1.04480    0.97090    0.98140   33.43670   -0.00090   25.30530    0.00920   31.34360    2.74170    2.99170    3.46180    0.79200    1.34550    0.93820 4156.00000
 9974.50000    8.75000    1.01110    0.93980    0.97090    0.98140   33.91150   -0.00090   24.23190    0.00850   29.62340    2.79530    3.29430    3.91630    0.71380    1.34550    0.93820 4177.00000
 9974.00000    8.75000    1.06200    1.11030    0.97090    0.98140   31.09530   -0.00090   25.83880    0.00880   30.61620    3.13340    3.56590    4.71290    0.66490    1.34550    0.93820 4159.00000
 9973.50000    8.75000    1.14400    0.99200    0.97090    0.98140   31.50420   -0.00090   29.84090    0.01000   34.68560    3.69380    3.68660    5.34760    0.69070    1.34550    0.93820 4207.00000
 9973.00000    8.75000    1.06510    1.14100    0.97090    0.98140   33.42700   -0.00090   30.76000    0.01050   35.06910    3.72560    3.55900    6.21290    0.59970    1.34550    0.93820 4168.00000
 9972.50000    8.75000    1.17330    1.12810    0.97090    0.98140   34.26980   -0.00090   32.16410    0.01080   36.80730    3.99760    3.71110    5.93910    0.67310    1.34550    0.93820 4178.00000
 9972.00000    8.75000    1.11950    1.12710    0.97090    0.98140   33.21370   -0.00090   33.30630    0.01140   39.21730    4.01410    3.53080    4.95720    0.80980    1.34550    0.93820 4213.00000
 9971.50000    8.75000    1.06410    1.24150    0.97090    0.98140   30.90960   -0.00090   37.38540    0.01280   43.77490    4.45600    3.46860    5.19520    0.85770    1.34550    0.93820 4164.00000
 9971.00000    8.75000    1.24950    1.25370    0.97090    0.98140   31.24420   -0.00090   35.63630    0.01220   41.74400    4.25670    3.48060    5.08500    0.83710    1.34550    0.93820 4162.00000
 9970.50000    8.75000    1.07560    0.97740    0.97090    0.98140   33.29090   -0.00090   32.07120    0.01070   37.34710    4.00420    3.73880    5.47770    0.73100    1.34550    0.93820 4180.00000
 9970.00000    8.75000    1.08260    1.10360    0.97090    0.98140   36.47350   -0.00090   30.10110    0.00980   34.56510    3.89250    3.96280    5.89520    0.66030    1.34550    0.93820 4179.00000
 9969.50000    8.75000    1.01770    1.15490    0.97090    0.98140   36.13900   -0.00090   32.80110    0.01090   37.55520    4.11500    3.76830    6.00030    0.68580    1.34550    0.93820 4152.00000
 9969.00000    8.75000    1.08410    1.04610    0.97090    0.98140   40.63620   -0.00090   34.17290    0.01150   39.87440    4.18920    3.62890    5.20250    0.80520    1.34550    0.93820 4180.00000
 9968.50000    8.75000    1.16050    1.03560    0.97090    0.98140   43.63380   -0.00090   33.44630    0.01160   38.16590    3.94010    3.40490    6.12840    0.64290    1.34550    0.93820 4166.00000
 9968.00000    8.75000    1.11290    1.08000    0.97090    0.98140   46.35540   -0.00090   33.96350    0.01170   38.64360    4.00420    3.40910    6.74440    0.59370    1.34550    0.93820 4183.00000
 9967.50000    8.75000    1.19780    1.15120    0.97090    0.98140   41.20790   -0.00090   33.63010    0.01130   38.39470    4.14670    3.66330    6.55880    0.63220    1.34550    0.93820 4171.00000
 9967.00000    8.75000    1.24740    1.11350    0.97090    0.98140   37.74320   -0.00090   37.18310    0.01260   41.16100    4.55590    3.62580    9.11180    0.48910    1.34550    0.93820 4213.00000
 9966.50000    8.75000    1.21650    1.15610    0.97090    0.98140   34.55800   -0.00090   36.29590    0.01210   40.63010    4.53040    3.73690    8.03550    0.56380    1.34550    0.93820 4190.00000
 9966.00000    8.75000    1.16190    1.20120    0.97090    0.98140   39.14640   -0.00090   35.32880    0.01180   38.57580    4.38800    3.70700    8.68460    0.50530    1.34550    0.93820 4205.00000
 9965.50000    8.75000    1.04320    1.10370    0.97090    0.98140   41.85550   -0.00090   31.38370    0.01070   34.74420    3.81350    3.57750    7.62690    0.48970    1.34550    0.93820 4205.00000
 9965.00000    8.75000    1.08880    1.14060    0.97090    0.98140   44.57220   -0.00090   29.95980    0.01050   34.06900    3.46980    3.31480    5.99870    0.57840    1.34550    0.93820 4202.00000
 9964.50000    8.75000    1.14930    1.23810    0.97090    0.98140   43.26130   -0.00090   32.35050    0.01140   36.94550    3.68220    3.22630    6.19000    0.59490    1.34550    0.93820 4189.00000
 9964.00000    8.75000    1.11780    1.13480    0.97090    0.98140   42.33130   -0.00090   34.25810    0.01170   38.34960    4.13970    3.54570    7.60510    0.54430    1.34550    0.93820 4234.00000
 9963.50000    8.75000    1.08080    1.11030    0.97090    0.98140   43.03340   -0.00090   30.84920    0.01080   34.20520    3.54160    3.26970    7.08320    0.44750    1.34550    0.93820 4247.00000
 9963.00000    8.75000    1.04550    1.06340    0.97090    0.98140   42.60330   -0.00090   26.40720    0.00910   30.43410    3.10520    3.39510    5.46800    0.56790    1.34550    0.93820 4209.00000
 9962.50000    8.75000    1.03190    0.97020    0.97090    0.98140   38.66320   -0.00090   28.55400    0.01000   33.35650    3.30330    3.30910    4.47160    0.73870    1.34550    0.93820 4232.00000
 9962.00000    8.75000    1.05380    1.04200    0.97090    0.98140   39.51310   -0.00090   32.13090    0.01140   38.68450    3.63740    3.19930    3.72700    0.97600    1.34550    0.93820 4235.00000
 9961.50000    8.75000    1.17370    1.15830    0.97090    0.98140   38.35250   -0.00090   34.31750    0.01200   40.40100    3.98320    3.32620    4.25690    0.93570    1.34550    0.93820 4246.00000
 9961.00000    8.75000    1.16500    1.12650    0.97090    0.98140   46.07830   -0.00090   31.11000    0.01070   35.96440    3.71980    3.48620    4.95670    0.75050    1.34550    0.93820 4237.00000
 9960.50000    8.75000    1.00440    1.10140    0.97090    0.98140   45.33130   -0.00090   27.79500    0.00970   33.05210    3.22540    3.32500    4.15060    0.77710    1.34550    0.93820 4256.00000
 9960.00000    8.75000    1.00890    1.06000    0.97090    0.98140   41.87860   -0.00090   29.99340    0.01040   35.36130    3.52270    3.38860    4.32240    0.81500    1.34550    0.93820 4278.00000
 9959.50000    8.75000    1.10900    1.19580    0.97090    0.98140   34.79020   -0.00090   33.28620    0.01130   38.66390    4.06410    3.60520    4.78060    0.85010    1.34550    0.93820 4246.00000
