~Version ---------------------------------------------------
VERS     .                                                                         2.0 : CWLS log ASCII Standard -VERSION 2.0
WRAP     .                                                                          NO : One Line per depth step
PROD     .                                                                Schlumberger : LAS Producer
PROG     .                                                      DLIS to ASCII 15C0-309 : LAS Program name and version
CREA     . 2008/02/21 06:26                          :LAS Creation date {YYYY/MM/DD hh : mm}
DLIS_CREA.     2008-Feb-20	21:27			       :DLIS Creation date and time {YYYY-MMM-DD hh : mm}
SOURCE   .                                           MAIN_AIT_TLD_MCFL_CNL_046PUP.DLIS : DLIS File Name
FILE-ID  .                                                     AIT_TLD_MCFL_CNL_046PUP : File Identification Number
~Well ------------------------------------------------------
STRT.F     10520.0 : START DEPTH
STOP.F      2062.0 : STOP DEPTH
STEP.F        -0.5 : STEP
NULL.      -999.25 : NULL VALUE
COMP.              : COMPANY
WELL.       Bakken : WELL
FLD .              : FIELD
LOC .              : LOCATION
CNTY.              : COUNTY
STAT.    N. DAKOTA : STATE
CTRY.              : COUNTRY
API .              : API NUMBER
UWI .              : UNIQUE WELL ID
DATE.  20-Feb-2008 : LOG DATE {DD-MMM-YYYY}
SRVC. Schlumberger : SERVICE COMPANY
LATI.DEG         0 : LATITUDE
LONG.DEG         0 : LONGITUDE
GDAT.              : GeoDetic Datum
SECT.              : Section
RANG.              : Range
TOWN.              : Township
~Curve Information -----------------------------------------
DEPT   .F     : DEPTH (BOREHOLE) {F10.1}
BS     .IN    : Bit Size {F13.4}
CHI1   .      : HNGS Detector 1 Chi Squared {F13.4}
CHI2   .      : HNGS Detector 2 Chi Squared {F13.4}
GCF1   .      : HNGS Detector 1 Gain Correction Factor {F13.4}
GCF2   .      : HNGS Detector 2 Gain Correction Factor {F13.4}
GR_EDTC.GAPI  : Gamma Ray {F13.4}
HBHK   .CFCF  : HNGS Borehole Potassium Concentration {F13.4}
HCGR   .GAPI  : HNGS Computed Gamma Ray {F13.4}
HFK    .CFCF  : HNGS Formation Potassium Concentration {F13.4}
HSGR   .GAPI  : HNGS Standard Gamma Ray {F13.4}
HTHO   .PPM   : HNGS Formation Thorium Concentration {F13.4}
HTPR   .      : HNGS Thorium/Potassium Ratio {F13.4}
HTUR   .      : HNGS Thorium/Uranium Ratio {F13.4}
HURA   .PPM   : HNGS Formation Uranium Concentration {F13.4}
RDF1   .      : HNGS Detector 1 Resolution Degradation Factor {F13.4}
RDF2   .      : HNGS Detector 2 Resolution Degradation Factor {F13.4}
TENS   .LBF   : Cable Tension {F13.4}
~Params ----------------------------------------------------
RUN .           ONE : RUN NUMBER
PDAT.  GROUND LEVEL : Permanent Datum
EPD .F       2111.0 : Elevation of Permanent Datum above Mean Sea Level
LMF . KELLY BUSHING : Logging Measured From (Name of Logging Elevation Reference)
APD .F         18.0 : Elevation of Depth Reference (LMF) above Permanent Datum
~Other -----------------------------------------------------
~ASCII -----------------------------------------------------
# ...
 5469.50000    8.75000    0.75580    0.78650    0.97220    0.98380   20.27320   -0.00610   13.14430    0.00150   14.01350    3.30860   21.46990    6.61720    0.15000    1.39790    0.86570 2861.00000
 5469.00000    8.75000    0.75580    0.78650    0.97220    0.98380   18.97910   -0.00610   15.68630    0.00180   17.43140    3.96150   21.80320    7.92300    0.21840    1.39790    0.86570 2843.00000
 5468.50000    8.75000    0.76450    0.77910    0.97220    0.98380   15.70450   -0.00610   17.16500    0.00200   19.90620    4.30640   21.14170    8.61280    0.25830    1.39790    0.86570 2839.00000
 5468.00000    8.75000    0.78170    0.78700    0.97220    0.98380    6.56490   -0.00610   17.97200    0.00190   22.33650    4.65250   24.64990    8.40400    0.55360    1.39790    0.86570 2839.00000
 5467.50000    8.75000    0.78170    0.78700    0.97220    0.98380    6.37810   -0.00610   19.64250    0.00170   25.34180    5.27540   30.36140    7.79040    0.67720    1.39790    0.86570 2843.00000
 5467.00000    8.75000    0.79760    0.78310    0.97220    0.98380    8.37440   -0.00610   17.86410    0.00110   25.67160    5.06210   44.84890    5.69300    0.88920    1.39790    0.86570 2857.00000
 5466.50000    8.75000    0.77530    0.78310    0.97220    0.98380   12.27660   -0.00610   16.54510    0.00130   24.44470    4.52300   34.06420    4.93560    0.91640    1.39790    0.86570 2846.00000
 5466.00000    8.75000    0.77530    0.75260    0.97220    0.98380   17.22910   -0.00610   13.86250    0.00140   21.10640    3.63680   26.47610    4.25510    0.85470    1.39790    0.86570 2863.00000
 5465.50000    8.75000    0.77720    0.77220    0.97220    0.98380   21.78200   -0.00610   11.14930    0.00090   17.32490    3.02680   30.26810    3.76900    0.80310    1.39790    0.86570 2860.00000
 5465.00000    8.75000    0.73180    0.77220    0.97220    0.98380   28.42560   -0.00610    9.03880    0.00120   14.21200    2.17790   17.76250    3.45470    0.63040    1.39790    0.86570 2870.00000
 5464.50000    8.75000    0.73180    0.75590    0.97220    0.98380   28.18580   -0.00610    7.75740    0.00150   12.35840    1.59900   10.56250    3.07160    0.52060    1.39790    0.86570 2857.00000
 5464.00000    8.75000    0.76030    0.75250    0.97220    0.98380   29.87480   -0.00610    6.84400    0.00150   11.97940    1.31110    8.70680    2.27790    0.57560    1.39790    0.86570 2821.00000
 5463.50000    8.75000    0.76030    0.75250    0.97220    0.98380   27.18800   -0.00610    7.63860    0.00200   13.02360    1.30320    6.66880    2.07560    0.62780    1.39790    0.86570 2831.00000
 5463.00000    8.75000    0.75760    0.79160    0.97220    0.98380   26.61540   -0.00610    9.33360    0.00210   13.45140    1.76050    8.38070    3.29730    0.53390    1.39790    0.86570 2832.00000
 5462.50000    8.75000    0.74820    0.77040    0.97220    0.98380   26.82100   -0.00610   11.71610    0.00280   13.87560    2.10820    7.50110    4.21630    0.20970    1.39790    0.86570 2840.00000
 5462.00000    8.75000    0.74820    0.77040    0.97220    0.98380   28.17520   -0.00610   14.28590    0.00350   14.11660    2.54370    7.32510    5.08750   -0.09140    1.39790    0.86570 2852.00000
 5461.50000    8.75000    0.75680    0.77110    0.97220    0.98380   28.13570   -0.00610   15.35720    0.00390   13.59500    2.64590    6.81190    5.29190   -0.30650    1.39790    0.86570 2855.00000
 5461.00000    8.75000    0.75760    0.77110    0.97220    0.98380   24.93130   -0.00610   14.45860    0.00370   13.19230    2.45390    6.59570    4.90790   -0.21740    1.39790    0.86570 2875.00000
 5460.50000    8.75000    0.75760    0.76780    0.97220    0.98380   20.81950   -0.00610   14.20990    0.00370   13.39010    2.37150    6.36630    4.74300   -0.13670    1.39790    0.86570 2869.00000
 5460.00000    8.75000    0.76860    0.76110    0.97220    0.98380   18.19990   -0.00610   16.23150    0.00430   14.45060    2.69460    6.29680    5.38930   -0.33900    1.39790    0.86570 2854.00000
 5459.50000    8.75000    0.76860    0.76110    0.97220    0.98380   14.27030   -0.00610   16.00000    0.00400   14.25340    2.80590    7.08100    5.61180   -0.30680    1.39790    0.86570 2849.00000
 5459.00000    8.75000    0.76020    0.73450    0.97220    0.98380   15.06310   -0.00610   13.99180    0.00320   12.47390    2.58550    7.97990    5.17110   -0.24380    1.39790    0.86570 2860.00000
 5458.50000    8.75000    0.75990    0.74610    0.97220    0.98380   16.37300   -0.00610   12.64970    0.00260   10.71330    2.55000    9.93640    5.10000   -0.29030    1.39790    0.86570 2844.00000
 5458.00000    8.75000    0.75990    0.74610    0.97220    0.98380   17.54490   -0.00610   12.36490    0.00210   10.06950    2.72190   12.85730    5.44370   -0.36180    1.39790    0.86570 2861.00000
 5457.50000    8.75000    0.73720    0.76100    0.97220    0.98380   15.58020   -0.00610   14.65280    0.00250   11.15460    3.21560   12.73190    6.43120   -0.55320    1.39790    0.86570 2842.00000
 5457.00000    8.75000    0.73870    0.77220    0.97220    0.98380   16.89000   -0.00610   15.98240    0.00260   12.23180    3.62090   14.13940    7.24170   -0.64130    1.39790    0.86570 2826.00000
 5456.50000    8.75000    0.73870    0.77220    0.97220    0.98380   14.42300   -0.00610   17.04970    0.00250   13.12030    3.99200   15.89810    7.98390   -0.72770    1.39790    0.86570 2838.00000
 5456.00000    8.75000    0.75850    0.73620    0.97220    0.98380   13.11310   -0.00610   16.62300    0.00230   12.90560    4.00650   17.78480    8.01290   -0.64670    1.39790    0.86570 2823.00000
 5455.50000    8.75000    0.75850    0.73620    0.97220    0.98380   10.49340   -0.00610   17.43950    0.00190   12.91220    4.45420   23.02120    8.90840   -0.77530    1.39790    0.86570 2832.00000
 5455.00000    8.75000    0.73680    0.77400    0.97220    0.98380   14.40820   -0.00610   17.71310    0.00160   12.56280    4.74450   29.86270    9.48900   -0.87260    1.39790    0.86570 2836.00000
 5454.50000    8.75000    0.74430    0.73900    0.97220    0.98380   14.42300   -0.00610   16.47020    0.00130   12.22140    4.50470   34.17370    9.00950   -0.74210    1.39790    0.86570 2829.00000
 5454.00000    8.75000    0.74430    0.73900    0.97220    0.98380   13.76810   -0.00610   16.44250    0.00100   12.92210    4.70230   47.02270    9.40450   -0.66160    1.39790    0.86570 2838.00000
 5453.50000    8.75000    0.77870    0.75910    0.97220    0.98380   11.14840   -0.00610   16.67530    0.00090   13.65390    4.81490   48.14900    9.62980   -0.63050    1.39790    0.86570 2849.00000
 5453.00000    8.75000    0.75390    0.74860    0.97220    0.98380   13.09840   -0.00610   17.99330    0.00100   14.37260    5.18790   51.87930   10.37590   -0.67160    1.39790    0.86570 2844.00000
 5452.50000    8.75000    0.75390    0.74860    0.97220    0.98380   15.06310   -0.00610   16.52470    0.00090   12.87420    4.75770   47.57720    9.51540   -0.60880    1.39790    0.86570 2865.00000
 5452.00000    8.75000    0.74690    0.75170    0.97220    0.98380   12.12340   -0.00610   13.05710    0.00070   11.64690    3.76990   37.69940    7.53990   -0.29980    1.39790    0.86570 2852.00000
 5451.50000    8.75000    0.73460    0.75170    0.97220    0.98380   11.46840   -0.00610   11.44300    0.00090   10.69670    3.16360   31.63640    6.32730   -0.09660    1.39790    0.86570 2854.00000
 5451.00000    8.75000    0.73460    0.74950    0.97220    0.98380   13.43320   -0.00610   10.79400    0.00100   10.50960    2.86400   28.23230    5.72800    0.05120    1.39790    0.86570 2834.00000
 5450.50000    8.75000    0.76390    0.74930    0.97220    0.98380   17.02790   -0.00610   10.43120    0.00090   10.58230    2.80820   28.08230    5.61650    0.08810    1.39790    0.86570 2836.00000
 5450.00000    8.75000    0.76390    0.74930    0.97220    0.98380   17.34070   -0.00610   10.77130    0.00130   12.15740    2.70880   21.37890    5.41760    0.24910    1.39790    0.86570 2839.00000
 5449.50000    8.75000    0.79750    0.73900    0.97220    0.98380   16.06640   -0.00610   13.49490    0.00210   17.13350    3.09850   14.81400    5.56900    0.55640    1.39790    0.86570 2831.00000
