~Version ---------------------------------------------------
VERS     .                                                                         2.0 : CWLS log ASCII Standard -VERSION 2.0
WRAP     .                                                                          NO : One Line per depth step
PROD     .                                                                Schlumberger : LAS Producer
PROG     .                                                      DLIS to ASCII 15C0-309 : LAS Program name and version
CREA     . 2008/02/21 06:26                          :LAS Creation date {YYYY/MM/DD hh : mm}
DLIS_CREA.     2008-Feb-20	21:27			       :DLIS Creation date and time {YYYY-MMM-DD hh : mm}
SOURCE   .                                           MAIN_AIT_TLD_MCFL_CNL_046PUP.DLIS : DLIS File Name
FILE-ID  .                                                     AIT_TLD_MCFL_CNL_046PUP : File Identification Number
~Well ------------------------------------------------------
STRT.F     10520.0 : START DEPTH
STOP.F      2062.0 : STOP DEPTH
STEP.F        -0.5 : STEP
NULL.      -999.25 : NULL VALUE
COMP.              : COMPANY
WELL.       Bakken : WELL
FLD .              : FIELD
LOC .              : LOCATION
CNTY.              : COUNTY
STAT.    N. DAKOTA : STATE
CTRY.              : COUNTRY
API .              : API NUMBER
UWI .              : UNIQUE WELL ID
DATE.  20-Feb-2008 : LOG DATE {DD-MMM-YYYY}
SRVC. Schlumberger : SERVICE COMPANY
LATI.DEG         0 : LATITUDE
LONG.DEG         0 : LONGITUDE
GDAT.              : GeoDetic Datum
SECT.              : Section
RANG.              : Range
TOWN.              : Township
~Curve Information -----------------------------------------
DEPT   .F     : DEPTH (BOREHOLE) {F10.1}
BS     .IN    : Bit Size {F13.4}
CHI1   .      : HNGS Detector 1 Chi Squared {F13.4}
CHI2   .      : HNGS Detector 2 Chi Squared {F13.4}
GCF1   .      : HNGS Detector 1 Gain Correction Factor {F13.4}
GCF2   .      : HNGS Detector 2 Gain Correction Factor {F13.4}
GR_EDTC.GAPI  : Gamma Ray {F13.4}
HBHK   .CFCF  : HNGS Borehole Potassium Concentration {F13.4}
HCGR   .GAPI  : HNGS Computed Gamma Ray {F13.4}
HFK    .CFCF  : HNGS Formation Potassium Concentration {F13.4}
HSGR   .GAPI  : HNGS Standard Gamma Ray {F13.4}
HTHO   .PPM   : HNGS Formation Thorium Concentration {F13.4}
HTPR   .      : HNGS Thorium/Potassium Ratio {F13.4}
HTUR   .      : HNGS Thorium/Uranium Ratio {F13.4}
HURA   .PPM   : HNGS Formation Uranium Concentration {F13.4}
RDF1   .      : HNGS Detector 1 Resolution Degradation Factor {F13.4}
RDF2   .      : HNGS Detector 2 Resolution Degradation Factor {F13.4}
TENS   .LBF   : Cable Tension {F13.4}
~Params ----------------------------------------------------
RUN .           ONE : RUN NUMBER
PDAT.  GROUND LEVEL : Permanent Datum
EPD .F       2111.0 : Elevation of Permanent Datum above Mean Sea Level
LMF . KELLY BUSHING : Logging Measured From (Name of Logging Elevation Reference)
APD .F         18.0 : Elevation of Depth Reference (LMF) above Permanent Datum
~Other -----------------------------------------------------
~ASCII -----------------------------------------------------
# ...
 9405.50000    8.75000    0.82360    0.80890    0.97190    0.98430   27.79920   -0.00410   14.64160    0.00460   17.63410    2.01040    4.39540    4.02080    0.38450    2.73180    2.06140 4008.00000
 9405.00000    8.75000    0.86670    0.80950    0.97190    0.98430   24.83790   -0.00410   12.37360    0.00380   14.37430    1.71460    4.46680    3.42920    0.20810    2.73180    2.06140 4000.00000
 9404.50000    8.75000    0.79940    0.82600    0.97190    0.98430   23.93870   -0.00410    9.30480    0.00280   10.95400    1.33210    4.73430    2.66410    0.16890    2.73180    2.06140 3994.00000
 9404.00000    8.75000    0.76720    0.79690    0.97190    0.98430   22.69050   -0.00410    6.56460    0.00210    7.49460    0.87760    4.19620    1.75510    0.07610    2.73180    2.06140 4033.00000
 9403.50000    8.75000    0.77100    0.78320    0.97190    0.98430   22.84140   -0.00410    5.70280    0.00160    6.51450    0.91170    5.83780    1.82330    0.07530    2.73180    2.06140 4033.00000
 9403.00000    8.75000    0.78600    0.78960    0.97190    0.98430   20.61790   -0.00410    4.93550    0.00140    6.46400    0.73850    5.13670    1.47710    0.15210    2.73180    2.06140 3984.00000
 9402.50000    8.75000    0.79740    0.78130    0.97190    0.98430   20.77890   -0.00410    4.26970    0.00140    6.43110    0.52950    3.70030    1.05890    0.22500    2.73180    2.06140 4015.00000
 9402.00000    8.75000    0.76900    0.77830    0.97190    0.98430   17.34100   -0.00410    3.69110    0.00110    6.49540    0.55050    5.10480    1.10110    0.33740    2.73180    2.06140 3991.00000
 9401.50000    8.75000    0.76790    0.76530    0.97190    0.98430   15.25490   -0.00410    4.00020    0.00110    6.35870    0.63420    5.74270    1.26850    0.28330    2.73180    2.06140 3995.00000
 9401.00000    8.75000    0.82300    0.79050    0.97190    0.98430    9.94510   -0.00410    4.17940    0.00120    6.85720    0.63270    5.25050    1.26540    0.32750    2.73180    2.06140 4056.00000
 9400.50000    8.75000    0.79280    0.79920    0.97190    0.98430    7.60480   -0.00410    4.83100    0.00130    6.49430    0.77020    5.80540    1.54030    0.18730    2.73180    2.06140 4044.00000
 9400.00000    8.75000    0.77540    0.77450    0.97190    0.98430    5.36970   -0.00410    3.83120    0.00110    6.45410    0.58900    5.40820    1.17810    0.29750    2.73180    2.06140 4031.00000
 9399.50000    8.75000    0.82420    0.79480    0.97190    0.98430    6.14980   -0.00410    4.21420    0.00130    6.81670    0.60200    4.71500    1.20390    0.30330    2.73180    2.06140 4034.00000
 9399.00000    8.75000    0.82030    0.77900    0.97190    0.98430    7.26470   -0.00410    5.97490    0.00200    8.36460    0.76480    3.89930    1.52960    0.26260    2.73180    2.06140 4049.00000
 9398.50000    8.75000    0.79830    0.81280    0.97190    0.98430    7.66790   -0.00410    7.17600    0.00230    9.95820    0.96010    4.20200    1.92010    0.30550    2.73180    2.06140 4048.00000
 9398.00000    8.75000    0.82600    0.85190    0.97190    0.98430    7.40670   -0.00410    8.57210    0.00300   11.80610    1.00120    3.36160    2.00230    0.34290    2.73180    2.06140 4034.00000
 9397.50000    8.75000    0.80890    0.84640    0.97190    0.98430    7.85200   -0.00410    8.97210    0.00330   12.43370    0.94560    2.87280    1.89130    0.38840    2.73180    2.06140 3999.00000
 9397.00000    8.75000    0.77150    0.82150    0.97190    0.98430    7.89580   -0.00410   10.04290    0.00370   13.37880    1.04440    2.81610    2.08880    0.38460    2.73180    2.06140 4025.00000
 9396.50000    8.75000    0.81270    0.91230    0.97190    0.98430    9.09560   -0.00410   12.01010    0.00440   14.49370    1.27040    2.88830    2.54090    0.27260    2.73180    2.06140 4045.00000
 9396.00000    8.75000    0.85400    0.85680    0.97190    0.98430    9.24400   -0.00410   12.85840    0.00480   15.32500    1.29430    2.68440    2.58870    0.27530    2.73180    2.06140 4028.00000
 9395.50000    8.75000    0.89050    0.86570    0.97190    0.98430    9.84000   -0.00410   12.62240    0.00460   14.83670    1.36090    2.97210    2.72180    0.23910    2.73180    2.06140 4014.00000
 9395.00000    8.75000    0.81020    0.86500    0.97190    0.98430   10.61770   -0.00410   12.44110    0.00460   14.98610    1.27170    2.74530    2.54330    0.28150    2.73180    2.06140 4042.00000
 9394.50000    8.75000    0.85070    0.88510    0.97190    0.98430   11.25230   -0.00410   14.48710    0.00510   16.62180    1.66230    3.26960    3.32450    0.27640    2.73180    2.06140 4045.00000
 9394.00000    8.75000    0.88970    0.88110    0.97190    0.98430   13.33850   -0.00410   16.12530    0.00550   19.01520    1.92400    3.47750    3.84800    0.41390    2.73180    2.06140 4070.00000
 9393.50000    8.75000    0.89170    0.92650    0.97190    0.98430   15.37990   -0.00410   15.92290    0.00540   19.64250    1.93090    3.56910    3.77180    0.51190    2.73180    2.06140 4085.00000
 9393.00000    8.75000    0.87930    0.88660    0.97190    0.98430   17.56130   -0.00410   14.17760    0.00470   17.68680    1.81220    3.89000    3.62430    0.47950    2.73180    2.06140 4060.00000
 9392.50000    8.75000    0.82080    0.85290    0.97190    0.98430   17.56130   -0.00410   13.25450    0.00420   16.53730    1.77490    4.20870    3.54990    0.42650    2.73180    2.06140 4066.00000
 9392.00000    8.75000    0.88350    0.81460    0.97190    0.98430   17.86360   -0.00410   13.54570    0.00440   16.40100    1.77820    4.06820    3.55630    0.36000    2.73180    2.06140 4055.00000
 9391.50000    8.75000    0.84320    0.92600    0.97190    0.98430   18.95580   -0.00410   13.53730    0.00440   16.94480    1.75250    3.97380    3.50500    0.45300    2.73180    2.06140 4070.00000
 9391.00000    8.75000    0.87300    0.79600    0.97190    0.98430   22.38300   -0.00410   14.01630    0.00440   17.54520    1.91410    4.35430    3.82820    0.45980    2.73180    2.06140 4050.00000
 9390.50000    8.75000    0.90060    0.86220    0.97190    0.98430   24.91610   -0.00410   14.34530    0.00440   17.72950    2.04080    4.68130    4.08150    0.45310    2.73180    2.06140 4061.00000
 9390.00000    8.75000    0.87660    0.87700    0.97190    0.98430   24.60410   -0.00410   16.54190    0.00530   20.09560    2.21400    4.20540    4.42810    0.49780    2.73180    2.06140 4100.00000
 9389.50000    8.75000    0.90970    0.88150    0.97190    0.98430   21.62390   -0.00410   17.84590    0.00590   21.80660    2.25180    3.80810    4.09720    0.54960    2.73180    2.06140 4064.00000
 9389.00000    8.75000    0.94910    0.88990    0.97190    0.98430   17.21510   -0.00410   19.51450    0.00660   23.88910    2.38650    3.61830    4.08610    0.58410    2.73180    2.06140 4105.00000
 9388.50000    8.75000    0.94670    0.89070    0.97190    0.98430   16.30340   -0.00410   20.33410    0.00670   24.26920    2.56000    3.79380    5.11990    0.47530    2.73180    2.06140 4036.00000
 9388.00000    8.75000    0.85250    0.94100    0.97190    0.98430   17.49550   -0.00410   17.97560    0.00610   21.51320    2.18500    3.58280    4.37000    0.44240    2.73180    2.06140 4031.00000
 9387.50000    8.75000    0.81250    0.89780    0.97190    0.98430   19.21170   -0.00410   15.44290    0.00550   18.83990    1.72500    3.13670    3.44990    0.42390    2.73180    2.06140 4045.00000
 9387.00000    8.75000    0.80810    0.82990    0.97190    0.98430   19.50970   -0.00410   17.01590    0.00620   20.42240    1.84150    2.98930    3.68310    0.43660    2.73180    2.06140 4085.00000
 9386.50000    8.75000    0.92650    0.98200    0.97190    0.98430   21.44680   -0.00410   21.18870    0.00760   25.29800    2.35870    3.12040    4.34730    0.54260    2.73180    2.06140 4037.00000
 9386.00000    8.75000    0.91810    0.95860    0.97190    0.98430   23.83540   -0.00410   26.34480    0.00920   30.24720    3.05030    3.31640    6.10070    0.49760    2.73180    2.06140 4062.00000
 9385.50000    8.75000    0.90070    0.99690    0.97190    0.98430   27.70260   -0.00410   26.45740    0.00970   31.62370    2.81030    2.90640    4.29170    0.65480    2.73180    2.06140 4042.00000
