~Version ---------------------------------------------------
VERS     .                                                                         2.0 : CWLS log ASCII Standard -VERSION 2.0
WRAP     .                                                                          NO : One Line per depth step
PROD     .                                                                Schlumberger : LAS Producer
PROG     .                                                      DLIS to ASCII 15C0-309 : LAS Program name and version
CREA     . 2008/02/21 06:26                          :LAS Creation date {YYYY/MM/DD hh : mm}
DLIS_CREA.     2008-Feb-20	21:27			       :DLIS Creation date and time {YYYY-MMM-DD hh : mm}
SOURCE   .                                           MAIN_AIT_TLD_MCFL_CNL_046PUP.DLIS : DLIS File Name
FILE-ID  .                                                     AIT_TLD_MCFL_CNL_046PUP : File Identification Number
~Well ------------------------------------------------------
STRT.F     10520.0 : START DEPTH
STOP.F      2062.0 : STOP DEPTH
STEP.F        -0.5 : STEP
NULL.      -999.25 : NULL VALUE
COMP.              : COMPANY
WELL.       Bakken : WELL
FLD .              : FIELD
LOC .              : LOCATION
CNTY.              : COUNTY
STAT.    N. DAKOTA : STATE
CTRY.              : COUNTRY
API .              : API NUMBER
UWI .              : UNIQUE WELL ID
DATE.  20-Feb-2008 : LOG DATE {DD-MMM-YYYY}
SRVC. Schlumberger : SERVICE COMPANY
LATI.DEG         0 : LATITUDE
LONG.DEG         0 : LONGITUDE
GDAT.              : GeoDetic Datum
SECT.              : Section
RANG.              : Range
TOWN.              : Township
~Curve Information -----------------------------------------
DEPT   .F     : DEPTH (BOREHOLE) {F10.1}
BS     .IN    : Bit Size {F13.4}
CHI1   .      : HNGS Detector 1 Chi Squared {F13.4}
CHI2   .      : HNGS Detector 2 Chi Squared {F13.4}
GCF1   .      : HNGS Detector 1 Gain Correction Factor {F13.4}
GCF2   .      : HNGS Detector 2 Gain Correction Factor {F13.4}
GR_EDTC.GAPI  : Gamma Ray {F13.4}
HBHK   .CFCF  : HNGS Borehole Potassium Concentration {F13.4}
HCGR   .GAPI  : HNGS Computed Gamma Ray {F13.4}
HFK    .CFCF  : HNGS Formation Potassium Concentration {F13.4}
HSGR   .GAPI  : HNGS Standard Gamma Ray {F13.4}
HTHO   .PPM   : HNGS Formation Thorium Concentration {F13.4}
HTPR   .      : HNGS Thorium/Potassium Ratio {F13.4}
HTUR   .      : HNGS Thorium/Uranium Ratio {F13.4}
HURA   .PPM   : HNGS Formation Uranium Concentration {F13.4}
RDF1   .      : HNGS Detector 1 Resolution Degradation Factor {F13.4}
RDF2   .      : HNGS Detector 2 Resolution Degradation Factor {F13.4}
TENS   .LBF   : Cable Tension {F13.4}
~Params ----------------------------------------------------
RUN .           ONE : RUN NUMBER
PDAT.  GROUND LEVEL : Permanent Datum
EPD .F       2111.0 : Elevation of Permanent Datum above Mean Sea Level
LMF . KELLY BUSHING : Logging Measured From (Name of Logging Elevation Reference)
APD .F         18.0 : Elevation of Depth Reference (LMF) above Permanent Datum
~Other -----------------------------------------------------
~ASCII -----------------------------------------------------
 10520.00000    8.75000    0.74590    0.74700    1.00000    1.00000   29.38350    -999.25   -2.17010    0.00030   12.64860   -0.85610   -8.56110   -0.53100    1.61220    0.00000    0.00000 3957.00000
 10519.50000    8.75000    0.74590    0.74700    1.00000    1.00000   29.38350    -999.25   -2.17010    0.00030   12.64860   -0.85610   -8.56110   -0.53100    1.61220    0.00000    0.00000 3968.00000
 10519.00000    8.75000    0.74590    0.74700    1.00000    1.00000   29.38350    -999.25   -2.17010    0.00030   12.64860   -0.85610   -8.56110   -0.53100    1.61220    0.00000    0.00000 4009.00000
 10518.50000    8.75000    0.74590    0.74700    1.00000    1.00000   29.38350    -999.25   -2.17010    0.00030   12.64860   -0.85610   -8.56110   -0.53100    1.61220    0.00000    0.00000 4064.00000
 10518.00000    8.75000    0.74590    0.74700    1.00000    1.00000   29.38350    -999.25   -2.17010    0.00030   12.64860   -0.85610   -8.56110   -0.53100    1.61220    0.00000    0.00000 4135.00000
 10517.50000    8.75000    0.74590    0.74700    1.00000    1.00000   29.38350    -999.25   -2.17010    0.00030   12.64860   -0.85610   -8.56110   -0.53100    1.61220    0.00000    0.00000 4143.00000
 10517.00000    8.75000    0.74590    0.74700    1.00000    1.00000   29.38350    -999.25   -2.17010    0.00030   12.64860   -0.85610   -8.56110   -0.53100    1.61220    0.00000    0.00000 4255.00000
 10516.50000    8.75000    0.74590    0.74700    1.00000    1.00000   29.38350    -999.25   -2.17010    0.00030   12.64860   -0.85610   -8.56110   -0.53100    1.61220    0.00000    0.00000 4293.00000
 10516.00000    8.75000    0.74590    0.74700    1.00000    1.00000   29.38350    -999.25   -2.17010    0.00030   12.64860   -0.85610   -8.56110   -0.53100    1.61220    0.00000    0.00000 4331.00000
 10515.50000    8.75000    0.74590    0.74700    1.00000    1.00000   29.38350    -999.25   -2.17010    0.00030   12.64860   -0.85610   -8.56110   -0.53100    1.61220    0.00000    0.00000 4288.00000
 10515.00000    8.75000    0.74590    0.74700    1.00000    1.00000   29.38350    -999.25   -2.17010    0.00030   12.64860   -0.85610   -8.56110   -0.53100    1.61220    0.00000    0.00000 4305.00000
 10514.50000    8.75000    0.74590    0.74700    1.00000    1.00000   29.38350    -999.25   -2.17010    0.00030   12.64860   -0.85610   -8.56110   -0.53100    1.61220    0.00000    0.00000 4301.00000
 10514.00000    8.75000    0.74590    0.74700    1.00000    1.00000   29.38350    -999.25   -2.17010    0.00030   12.64860   -0.85610   -8.56110   -0.53100    1.61220    0.00000    0.00000 4305.00000
 10513.50000    8.75000    0.74590    0.74700    1.00000    1.00000   29.38350    -999.25   -2.17010    0.00030   12.64860   -0.85610   -8.56110   -0.53100    1.61220    0.00000    0.00000 4251.00000
 10513.00000    8.75000    0.74590    0.74700    1.00000    1.00000   29.38350    -999.25   -2.16990    0.00030   12.64720   -0.85600   -8.56010   -0.53100    1.61200    0.00000    0.00000 4324.00000
 10512.50000    8.75000    0.74590    0.74700    1.00000    1.00000   29.38350    -999.25   -2.16960    0.00030   12.64530   -0.85590   -8.55880   -0.53100    1.61180    0.00000    0.00000 4284.00000
 10512.00000    8.75000    0.74590    0.74700    1.00000    1.00000   29.38350    -999.25   -2.16930    0.00030   12.64400   -0.85580   -8.55800   -0.53100    1.61160    0.00000    0.00000 4257.00000
 10511.50000    8.75000    0.74590    0.74700    1.00000    1.00000   29.38350    -999.25   -2.16920    0.00030   12.64330   -0.85570   -8.55750   -0.53100    1.61150    0.00000    0.00000 4296.00000
 10511.00000    8.75000    0.74590    0.74700    1.00000    1.00000   29.38350    -999.25   -2.16890    0.00030   12.64160   -0.85560   -8.55630   -0.53100    1.61130    0.00000    0.00000 4301.00000
 10510.50000    8.75000    0.74590    0.74700    1.00000    1.00000   29.38350    -999.25   -2.16900    0.00030   12.64200   -0.85570   -8.55660   -0.53100    1.61140    0.00000    0.00000 4291.00000
 10510.00000    8.75000    0.74590    0.74700    1.00000    1.00000   29.38350    -999.25   -2.16890    0.00030   12.64160   -0.85560   -8.55630   -0.53100    1.61130    0.00000    0.00000 4301.00000
 10509.50000    8.75000    0.74590    0.74700    1.00000    1.00000   29.38350    -999.25   -2.16940    0.00030   12.64430   -0.85580   -8.55810   -0.53100    1.61170    0.00000    0.00000 4318.00000
 10509.00000    8.75000    0.74590    0.74700    1.00000    1.00000   29.38350    -999.25   -2.16930    0.00030   12.64370   -0.85580   -8.55780   -0.53100    1.61160    0.00000    0.00000 4361.00000
 10508.50000    8.75000    0.74590    0.74700    1.00000    1.00000   29.38350    -999.25   -2.16970    0.00030   12.64630   -0.85600   -8.55950   -0.53100    1.61190    0.00000    0.00000 4328.00000
 10508.00000    8.75000    0.74590    0.74700    1.00000    1.00000   29.38350    -999.25   -2.16950    0.00030   12.64500   -0.85590   -8.55860   -0.53100    1.61170    0.00000    0.00000 4324.00000
 10507.50000    8.75000    0.74590    0.74700    1.00000    1.00000   29.38350    -999.25   -2.16980    0.00030   12.64640   -0.85600   -8.55960   -0.53100    1.61190    0.00000    0.00000 4361.00000
 10507.00000    8.75000    0.74590    0.74700    1.00000    1.00000   29.38350    -999.25   -2.16960    0.00030   12.64560   -0.85590   -8.55900   -0.53100    1.61180    0.00000    0.00000 4335.00000
 10506.50000    8.75000    0.74590    0.74700    1.00000    1.00000   29.38350    -999.25   -2.17040    0.00030   12.65030   -0.85620   -8.56220   -0.53100    1.61240    0.00000    0.00000 4300.00000
 10506.00000    8.75000    0.74590    0.74700    1.00000    1.00000   29.38350    -999.25   -2.17010    0.00030   12.64860   -0.85610   -8.56110   -0.53100    1.61220    0.00000    0.00000 4317.00000
 10505.50000    8.75000    0.74590    0.74700    1.00000    1.00000   29.38350    -999.25   -2.17040    0.00030   12.65030   -0.85620   -8.56220   -0.53100    1.61240    0.00000    0.00000 4315.00000
 10505.00000    8.75000    0.74590    0.74700    1.00000    1.00000   29.38350    -999.25   -2.16980    0.00030   12.64690   -0.85600   -8.55990   -0.53100    1.61200    0.00000    0.00000 4340.00000
 10504.50000    8.75000    0.74590    0.74700    1.00000    1.00000   29.38350    -999.25   -2.17010    0.00030   12.64860   -0.85610   -8.56110   -0.53100    1.61220    0.00000    0.00000 4305.00000
 10504.00000    8.75000    0.74590    0.74700    1.00000    1.00000   29.38350    -999.25   -2.16970    0.00030   12.64630   -0.85600   -8.55950   -0.53100    1.61190    0.00000    0.00000 4294.00000
 10503.50000    8.75000    0.74590    0.74700    1.00000    1.00000   29.38350    -999.25   -2.16960    0.00030   12.64570   -0.85590   -8.55910   -0.53100    1.61180    0.00000    0.00000 4335.00000
 10503.00000    8.75000    0.74590    0.74700    1.00000    1.00000   29.38350    -999.25   -2.17000    0.00030   12.64790   -0.85610   -8.56060   -0.53100    1.61210    0.00000    0.00000 4326.00000
 10502.50000    8.75000    0.74590    0.74700    1.00000    1.00000   29.38350    -999.25   -2.17030    0.00030   12.64930   -0.85620   -8.56160   -0.53100    1.61230    0.00000    0.00000 4334.00000
 10502.00000    8.75000    0.74590    0.74700    1.00000    1.00000   29.38350    -999.25   -2.17040    0.00030   12.65000   -0.85620   -8.56210   -0.53100    1.61240    0.00000    0.00000 4357.00000
 10501.50000    8.75000    0.74590    0.74700    1.00000    1.00000   29.38350    -999.25   -2.17040    0.00030   12.65050   -0.85620   -8.56240   -0.53100    1.61240    0.00000    0.00000 4354.00000
 10501.00000    8.75000    0.74590    0.74700    1.00000    1.00000   29.38350    -999.25   -2.17060    0.00030   12.65120   -0.85630   -8.56280   -0.53100    1.61250    0.00000    0.00000 4321.00000
 10500.50000    8.75000    0.74590    0.74700    1.00000    1.00000   29.38350    -999.25   -2.17070    0.00030   12.65190   -0.85630   -8.56340   -0.53100    1.61260    0.00000    0.00000 4323.00000
